Label,Location,Registration,DateTime,SpeedKM,Driver,CostCentre,lat,long
HQN882,"Main South Road, Burnham 7675.",HQN882,Tue 7 Oct 7:50 a.m.,114,NA,NA,-43.6343,172.264
HQN882,"2034 Rakaia Highway, Rakaia 7772.",HQN882,Tue 7 Oct 8:09 a.m.,119,NA,NA,-43.7831,171.977
HQN882,"Near 1608 Thompsons Track, Mitcham 7772.",HQN882,Tue 7 Oct 1:49 p.m.,114,NA,NA,-43.7498,171.822
HQN882,"Near 869 Ashworths Road, Sefton 7481.",HQN882,Wed 8 Oct 12:06 p.m.,115,NA,NA,-43.2377,172.721
HQN882,"81 Main South Road, Rolleston 7614.",HQN882,Thu 9 Oct 12:56 p.m.,113,NA,NA,-43.5948,172.368
HQN882,"Near Main South Road, Bankside 7783.",HQN882,Thu 9 Oct 1:13 p.m.,112,NA,NA,-43.7121,172.075
HQN882,"Near State Highway 1, Rakaia 7781.",HQN882,Thu 9 Oct 1:20 p.m.,116,NA,NA,-43.7804,171.984
HQN882,"2034 Rakaia Highway, Rakaia 7772.",HQN882,Thu 9 Oct 1:20 p.m.,130,NA,NA,-43.7828,171.978
HQN882,"Near 1347 Rakaia Highway, Chertsey 7772.",HQN882,Thu 9 Oct 1:24 p.m.,111,NA,NA,-43.8156,171.902
HQN882,"Near 639 Rakaia Highway, Fairton 7772.",HQN882,Thu 9 Oct 1:29 p.m.,119,NA,NA,-43.8547,171.823
HQN882,"3458-3648 State Highway 1, Dunsandel 7682.",HQN882,Thu 9 Oct 3:51 p.m.,113,NA,NA,-43.6668,172.176
HQN882,"3458-3648 State Highway 1, Dunsandel 7682.",HQN882,Thu 9 Oct 3:52 p.m.,112,NA,NA,-43.6647,172.182
HQN882,"Near Main South Road, Burnham 7675.",HQN882,Thu 9 Oct 3:57 p.m.,111,NA,NA,-43.6313,172.272
HQN882,"Main South Road, Dunsandel 7682.",HQN882,Fri 17 Oct 8:14 a.m.,111,NA,NA,-43.6827,172.134
HQN882,"Near Main South Road, Burnham 7675.",HQN882,Wed 22 Oct 8:08 a.m.,114,NA,NA,-43.6316,172.272
HQN882,"Main South Road, Dunsandel 7682.",HQN882,Wed 22 Oct 10:18 a.m.,114,NA,NA,-43.6854,172.127
HQN882,"Near Christchurch Southern Motorway, Wigram, Christchurch 8024.",HQN882,Wed 22 Oct 1:40 p.m.,113,NA,NA,-43.5462,172.585
HQN882,"State Highway 1, Dromore 7772.",HQN882,Thu 23 Oct 8:41 a.m.,112,NA,NA,-43.8515,171.828
HQN882,"Near Orari-Rangitata Highway, Belfield 7992.",HQN882,Thu 23 Oct 9:16 a.m.,118,NA,NA,-44.0777,171.353
HQN882,"Near 211 Orari-Rangitata Highway, Orton 7992.",HQN882,Thu 23 Oct 9:19 a.m.,114,NA,NA,-44.108,171.315
HQN882,"188-208 Temuka-Orari Highway, Winchester 7985.",HQN882,Thu 30 Oct 9:21 a.m.,118,NA,NA,-44.2024,171.277
HQN883,"Near 4859 Otira Highway, Jacksons 7875.",HQN883,Wed 29 Oct 11:38 a.m.,113,NA,NA,-42.7558,171.55
HQN883,"Near 2002 Otira Highway, Turiwhate 7875.",HQN883,Wed 29 Oct 11:57 a.m.,112,NA,NA,-42.7323,171.261
HQN883,"Near 447 Otira Highway, Kumara 7832.",HQN883,Wed 29 Oct 12:08 p.m.,113,NA,NA,-42.6191,171.173
HQN883,"Near 11626 West Coast Road, Bealey 7580.",HQN883,Thu 30 Oct 10:57 a.m.,115,NA,NA,-43.0202,171.747
HQN884,"424-456 State Highway, Otaki 5581.",HQN884,Tue 14 Oct 8:39 a.m.,112,NA,NA,-40.7356,175.189
HQN884,"773 State Highway 1, Manakau 5573.",HQN884,Tue 14 Oct 8:43 a.m.,119,NA,NA,-40.6917,175.233
HQN884,"107-205 State Highway 57, Levin 5571.",HQN884,Wed 15 Oct 9:12 a.m.,115,NA,NA,-40.644,175.292
HQN884,"621-863 State Highway, Te Horo 5581.",HQN884,Wed 15 Oct 3:41 p.m.,113,NA,NA,-40.8097,175.115
HQN884,"245 State Highway 1, Otaki 5581.",HQN884,Fri 31 Oct 4:29 p.m.,113,NA,NA,-40.7402,175.18
HQN884,"190-264 State Highway, Otaki 5581.",HQN884,Fri 31 Oct 4:30 p.m.,113,NA,NA,-40.7419,175.174
HQN884,"843 State Highway 1, Te Horo 5581.",HQN884,Fri 31 Oct 4:38 p.m.,112,NA,NA,-40.8084,175.116
HQN884,"Near 763 State Highway 1, Te Horo 5581.",HQN884,Fri 31 Oct 4:38 p.m.,119,NA,NA,-40.8124,175.113
HQN885,"Near Dunedin Northern Motorway, Upper Waitati 9085.",HQN885,Fri 10 Oct 2:17 p.m.,111,NA,NA,-45.7939,170.527
HQN885,"Near Palmerston-Waikouaiti Road, Goodwood 9481.",HQN885,Fri 17 Oct 12:07 p.m.,111,NA,NA,-45.5151,170.697
HQN885,"Near Taieri Plains Highway, Henley 9073.",HQN885,Thu 23 Oct 9:12 a.m.,113,NA,NA,-45.9794,170.15
HQN885,"Taieri Plains Highway, Henley 9073.",HQN885,Thu 23 Oct 9:12 a.m.,113,NA,NA,-45.9822,170.145
HQN885,"127 Manuka Gorge Highway, Milton 9292.",HQN885,Thu 23 Oct 9:31 a.m.,112,NA,NA,-46.1236,169.91
HQN885,"227-295 State Highway 8, Table Mound 9291.",HQN885,Thu 23 Oct 9:31 a.m.,116,NA,NA,-46.1207,169.905
HQN885,"Cromwell-Clyde Road, Cromwell Gorge 9383.",HQN885,Thu 23 Oct 12:49 p.m.,114,NA,NA,-45.0805,169.25
HQN885,"Near Kawarau Gorge Road, Cromwell 9384.",HQN885,Thu 23 Oct 1:02 p.m.,111,NA,NA,-45.0568,169.156
HQN885,"Near 4361 Te Anau-Mossburn Highway, Centre Hill 9672.",HQN885,Fri 24 Oct 12:29 p.m.,111,NA,NA,-45.589,168.125
HQN885,"Te Anau-Mossburn Highway, Centre Hill 9672.",HQN885,Fri 24 Oct 12:29 p.m.,113,NA,NA,-45.5931,168.128
HQN885,"Near 4488 Te Anau-Mossburn Highway, Centre Hill 9672.",HQN885,Fri 24 Oct 12:29 p.m.,115,NA,NA,-45.5974,168.13
HQN885,"Near Kawarau Gorge Road, Kawarau Gorge 9384.",HQN885,Sat 25 Oct 9:47 a.m.,112,NA,NA,-45.0559,169.03
HQN885,"Near Kawarau Gorge Road, Kawarau Gorge 9384.",HQN885,Sat 25 Oct 9:48 a.m.,116,NA,NA,-45.0581,169.033
HQN885,"Near Kawarau Gorge Road, Kawarau Gorge 9384.",HQN885,Sat 25 Oct 9:48 a.m.,113,NA,NA,-45.0587,169.035
HQN885,"Near Palmerston-Waikouaiti Road, Goodwood 9481.",HQN885,Sat 25 Oct 8:57 p.m.,113,NA,NA,-45.5145,170.697
HQN886,"526 State Highway, Kaitoke 4572.",HQN886,Thu 9 Oct 4:05 p.m.,111,NA,NA,-39.9714,175.11
HQN886,"Near 563 State Highway 1, Queen Elizabeth Park, Paraparaumu 5034.",HQN886,Tue 14 Oct 9:16 a.m.,113,NA,NA,-40.9647,174.986
HQN886,"1039-1155 State Highway, Otaki 5581.",HQN886,Wed 15 Oct 5:18 p.m.,112,NA,NA,-40.7913,175.13
HQN886,"146-178 State Highway, Shannon 4821.",HQN886,Wed 15 Oct 6:01 p.m.,111,NA,NA,-40.533,175.431
HQN886,"Near State Highway, Shannon 4474.",HQN886,Wed 15 Oct 6:02 p.m.,111,NA,NA,-40.5299,175.436
HQN886,"1630 Napier Road, Aokautere 4471.",HQN886,Fri 17 Oct 6:55 a.m.,118,NA,NA,-40.3092,175.766
HQN886,"Near 1631 Napier Road, Aokautere 4471.",HQN886,Fri 17 Oct 6:55 a.m.,112,NA,NA,-40.3083,175.767
HQN886,"267-269 State Highway 1, Otaki 5581.",HQN886,Tue 21 Oct 4:13 p.m.,112,NA,NA,-40.7391,175.182
HQN887,"2096-2322 State Highway, Lower Kaimai 3171.",HQN887,Tue 7 Oct 3:23 p.m.,111,NA,NA,-37.8287,175.992
HQN887,"5352-5376 State Highway, Matamata 3472.",HQN887,Tue 14 Oct 9:02 a.m.,124,NA,NA,-37.8885,175.713
HQN887,"4891-4929 State Highway 1, Kinleith 3491.",HQN887,Thu 16 Oct 6:45 p.m.,111,NA,NA,-38.2729,175.902
HQN887,"1356 Otorohanga Road, Otorohanga 3974.",HQN887,Thu 23 Oct 8:58 a.m.,111,NA,NA,-38.1483,175.304
HQN887,"Near 2627 State Highway 3, Mahoenui 3978.",HQN887,Thu 23 Oct 10:29 a.m.,120,NA,NA,-38.5976,174.798
HQN887,"Near 3235 State Highway 3, Awakino 4376.",HQN887,Thu 23 Oct 10:34 a.m.,125,NA,NA,-38.6191,174.749
HQN887,"4491-4581 State Highway, Awakino 4376.",HQN887,Thu 23 Oct 10:45 a.m.,115,NA,NA,-38.6665,174.664
HQN887,"3072-3140 Mokau Road, Ahititi 4378.",HQN887,Thu 23 Oct 11:06 a.m.,111,NA,NA,-38.8679,174.599
HQN887,"2507 State Highway 3, Mahoenui 3978.",HQN887,Thu 23 Oct 2:43 p.m.,119,NA,NA,-38.5863,174.828
HQN887,"201-295 State Highway, Piarere 3484.",HQN887,Thu 30 Oct 4:23 p.m.,120,NA,NA,-37.9651,175.689
HQN887,"Near State Highway, Kaingaroa Forest 3073.",HQN887,Thu 30 Oct 6:06 p.m.,113,NA,NA,-38.3608,176.47
HQN887,"Near State Highway, Kaingaroa Forest 3073.",HQN887,Thu 30 Oct 6:06 p.m.,111,NA,NA,-38.3692,176.474
HQN887,"Near State Highway, Kaingaroa Forest 3073.",HQN887,Thu 30 Oct 6:07 p.m.,115,NA,NA,-38.3729,176.478
HQN887,"Near Forestry Road, Kaingaroa Forest 3073.",HQN887,Thu 30 Oct 6:07 p.m.,113,NA,NA,-38.3804,176.485
HQN887,"State Highway, Kaingaroa Forest 3073.",HQN887,Thu 30 Oct 6:07 p.m.,111,NA,NA,-38.3841,176.488
HQN887,"State Highway, Kaingaroa Forest 3073.",HQN887,Thu 30 Oct 6:08 p.m.,111,NA,NA,-38.3877,176.491
HQN887,"Near State Highway, Kaingaroa Forest 3073.",HQN887,Thu 30 Oct 6:08 p.m.,112,NA,NA,-38.3915,176.495
HQN887,"Near State Highway, Kaingaroa Forest 3073.",HQN887,Thu 30 Oct 6:08 p.m.,114,NA,NA,-38.3952,176.499
HQN887,"Near State Highway, Kaingaroa Forest 3073.",HQN887,Thu 30 Oct 6:08 p.m.,114,NA,NA,-38.3988,176.502
HQN887,"State Highway, Kaingaroa Forest 3073.",HQN887,Thu 30 Oct 6:09 p.m.,112,NA,NA,-38.4025,176.505
HQN887,"Near State Highway, Kaingaroa Forest 3073.",HQN887,Thu 30 Oct 6:09 p.m.,112,NA,NA,-38.41,176.513
HQN887,"State Highway, Kaingaroa Forest 3073.",HQN887,Thu 30 Oct 6:10 p.m.,111,NA,NA,-38.4137,176.516
HQN887,"Near State Highway, Kaingaroa Forest 3073.",HQN887,Thu 30 Oct 6:10 p.m.,112,NA,NA,-38.4173,176.519
HQN887,"Near State Highway, Kaingaroa Forest 3073.",HQN887,Thu 30 Oct 6:10 p.m.,111,NA,NA,-38.4211,176.523
HQN887,"Near State Highway, Kaingaroa Forest 3073.",HQN887,Thu 30 Oct 6:10 p.m.,111,NA,NA,-38.4247,176.527
HQN887,"Near State Highway, Kaingaroa Forest 3073.",HQN887,Thu 30 Oct 6:11 p.m.,113,NA,NA,-38.4281,176.531
HQN887,"Near State Highway, Kaingaroa Forest 3073.",HQN887,Thu 30 Oct 6:11 p.m.,111,NA,NA,-38.4316,176.535
HQN887,"Near State Highway, Kaingaroa Forest 3073.",HQN887,Thu 30 Oct 6:12 p.m.,111,NA,NA,-38.4423,176.547
HQN887,"Near State Highway, Kaingaroa Forest 3073.",HQN887,Thu 30 Oct 6:13 p.m.,111,NA,NA,-38.4464,176.563
HQN887,"866 State Highway, Kaingaroa Forest 3079.",HQN887,Thu 30 Oct 6:15 p.m.,111,NA,NA,-38.4494,176.61
HQN887,"866-868 State Highway, Kaingaroa Forest 3079.",HQN887,Thu 30 Oct 6:16 p.m.,113,NA,NA,-38.4494,176.622
HQN887,"866-868 State Highway, Kaingaroa Forest 3079.",HQN887,Thu 30 Oct 6:16 p.m.,111,NA,NA,-38.4495,176.628
HQN888,"Near 1042 State Highway 1, Pohuehue 0983.",HQN888,Fri 10 Oct 11:16 a.m.,120,NA,NA,-36.4766,174.655
HQN888,"2468-2628 State Highway 1, Brynderwyn 0587.",HQN888,Fri 10 Oct 12:06 p.m.,115,NA,NA,-36.1194,174.436
HQN888,"Near 4346 State Highway 1, Waipu 0582.",HQN888,Fri 10 Oct 12:14 p.m.,112,NA,NA,-36.0366,174.417
HQN888,"Near 1869 State Highway 1, Mata 0171.",HQN888,Fri 10 Oct 12:30 p.m.,111,NA,NA,-35.8529,174.369
HQN888,"Near 2379 State Highway 1, Kaiwaka 0587.",HQN888,Fri 10 Oct 5:49 p.m.,114,NA,NA,-36.129,174.431
HQN888,"Southern Motorway, Bombay 2675.",HQN888,Fri 10 Oct 8:11 p.m.,113,NA,NA,-37.1851,174.981
HQN888,"3465 State Highway 1, Kinleith 3491.",HQN888,Sat 11 Oct 7:12 a.m.,111,NA,NA,-38.1633,175.857
HQN888,"Near 5575 State Highway 1, Kinleith 3491.",HQN888,Sat 11 Oct 7:25 a.m.,114,NA,NA,-38.3031,175.967
HQN888,"5575 State Highway 1, Kinleith 3491.",HQN888,Sat 11 Oct 7:27 a.m.,112,NA,NA,-38.3246,175.989
HQN888,"Near 1769 State Highway 1, Oruanui 3377.",HQN888,Sat 11 Oct 7:40 a.m.,111,NA,NA,-38.4917,176.052
HQN888,"311-413 State Highway, Wairakei 3377.",HQN888,Sat 11 Oct 7:49 a.m.,111,NA,NA,-38.6047,176.074
HQN888,"Taupo Bypass, Rotokawa 3377.",HQN888,Sat 11 Oct 7:52 a.m.,115,NA,NA,-38.6429,176.1
HQN888,"Near Taupo Bypass, Rotokawa 3377.",HQN888,Sat 11 Oct 7:53 a.m.,113,NA,NA,-38.6476,176.1
HQN888,"Near State Highway, Ohakuri 3083.",HQN888,Sun 12 Oct 3:09 p.m.,113,NA,NA,-38.4558,176.058
HQN888,"Near State Highway, Ohakuri 3083.",HQN888,Sun 12 Oct 3:09 p.m.,115,NA,NA,-38.4512,176.059
HQN888,"5575 State Highway 1, Kinleith 3491.",HQN888,Sun 12 Oct 3:21 p.m.,111,NA,NA,-38.3115,175.973
HQN888,"Near 5575 State Highway 1, Kinleith 3491.",HQN888,Sun 12 Oct 3:22 p.m.,115,NA,NA,-38.3076,175.969
HQN888,"4891-4929 State Highway 1, Kinleith 3491.",HQN888,Sun 12 Oct 3:27 p.m.,111,NA,NA,-38.2699,175.9
HQN888,"1506-1714 State Highway 1, Karapiro 3494.",HQN888,Sun 12 Oct 4:04 p.m.,111,NA,NA,-37.9466,175.647
HQN888,"1506-1714 Tirau Road, Karapiro 3494.",HQN888,Tue 21 Oct 12:25 p.m.,111,NA,NA,-37.947,175.651
HQN888,"5352-5376 State Highway, Matamata 3472.",HQN888,Tue 21 Oct 5:21 p.m.,112,NA,NA,-37.8937,175.708
HQN888,"Near State Highway 1, Pokeno 2472.",HQN888,Thu 30 Oct 5:03 p.m.,112,NA,NA,-37.2201,175.002
HQN888,"State Highway 1, Pokeno 2474.",HQN888,Thu 30 Oct 5:07 p.m.,111,NA,NA,-37.262,175.042
HQN890,"1335 State Highway 2, Wairoa 4196.",HQN890,Thu 9 Oct 9:03 a.m.,113,NA,NA,-39.0361,177.545
HQN890,"2271 State Highway 2, Whakaki 4198.",HQN890,Thu 9 Oct 9:09 a.m.,112,NA,NA,-39.045,177.649
HQN890,"2372 State Highway 2, Whakaki 4198.",HQN890,Thu 9 Oct 9:10 a.m.,114,NA,NA,-39.0439,177.666
HQN890,"1716 Whangara Road, Pouawa 4073.",HQN890,Thu 9 Oct 10:54 a.m.,118,NA,NA,-38.5785,178.181
HQN890,"1716 Whangara Road, Pouawa 4073.",HQN890,Thu 9 Oct 10:54 a.m.,115,NA,NA,-38.578,178.182
HQN890,"1716 Whangara Road, Pouawa 4073.",HQN890,Thu 9 Oct 1:04 p.m.,111,NA,NA,-38.5756,178.185
HQN890,"Whangara Road, Pouawa 4073.",HQN890,Thu 9 Oct 1:04 p.m.,111,NA,NA,-38.5831,178.181
HQN890,"5066-5086 Matawai Road, Te Karaka 4092.",HQN890,Fri 10 Oct 9:04 a.m.,114,NA,NA,-38.4429,177.607
HQN890,"Near 5319 Matawai Road, Matawai 4092.",HQN890,Fri 10 Oct 9:04 a.m.,112,NA,NA,-38.4423,177.601
HQN890,"Near 5896 Matawai Road, Matawai 4075.",HQN890,Fri 10 Oct 9:08 a.m.,114,NA,NA,-38.4028,177.561
HQN890,"6012 Matawai Road, Matawai 4075.",HQN890,Fri 10 Oct 9:10 a.m.,114,NA,NA,-38.382,177.554
HQN890,"6194-6196 Matawai Road, Matawai 4075.",HQN890,Fri 10 Oct 9:10 a.m.,114,NA,NA,-38.3783,177.55
HQN890,"6207-6249 Matawai Road, Matawai 4075.",HQN890,Fri 10 Oct 9:10 a.m.,118,NA,NA,-38.374,177.548
HQN890,"6328 Matawai Road, Matawai 4075.",HQN890,Fri 10 Oct 9:10 a.m.,111,NA,NA,-38.3698,177.546
HQN890,"6280-6462 State Highway 2, Matawai 4075.",HQN890,Fri 10 Oct 9:11 a.m.,119,NA,NA,-38.3652,177.545
HQN890,"6280-6462 State Highway 2, Matawai 4075.",HQN890,Fri 10 Oct 9:11 a.m.,119,NA,NA,-38.361,177.543
HQN890,"Near Matawai Road, Matawai 4075.",HQN890,Fri 10 Oct 9:15 a.m.,116,NA,NA,-38.3678,177.488
HQN890,"6617-6665 Matawai Road, Matawai 4075.",HQN890,Fri 10 Oct 11:47 a.m.,122,NA,NA,-38.3627,177.496
HQN890,"243 Matawai Road, Hexton 4071.",HQN890,Fri 10 Oct 12:49 p.m.,114,NA,NA,-38.6329,177.947
HQN890,"Near Wharerata Road, Wharerata 4078.",HQN890,Fri 10 Oct 1:14 p.m.,113,NA,NA,-38.8747,177.882
HQN890,"Near 2445 State Highway 2, Tangoio 4181.",HQN890,Mon 20 Oct 1:19 p.m.,111,NA,NA,-39.2924,176.878
HQN890,"Near 5257 State Highway 2, Putorino 4188.",HQN890,Mon 20 Oct 1:39 p.m.,112,NA,NA,-39.1412,176.984
HQN890,"3903 State Highway, Raupunga 4189.",HQN890,Mon 20 Oct 1:52 p.m.,113,NA,NA,-39.0624,177.111
HQN890,"3903-3919 State Highway, Raupunga 4189.",HQN890,Mon 20 Oct 1:54 p.m.,113,NA,NA,-39.0731,177.128
HQN890,"3361-3391 State Highway, Raupunga 4189.",HQN890,Mon 20 Oct 1:56 p.m.,112,NA,NA,-39.0841,177.155
HQN890,"Near 3312 State Highway 2, Raupunga 4189.",HQN890,Mon 20 Oct 1:57 p.m.,111,NA,NA,-39.0847,177.175
HQN890,"Near State Highway, Raupunga 4197.",HQN890,Mon 20 Oct 2:07 p.m.,116,NA,NA,-39.0643,177.303
HQN890,"Near State Highway, Wairoa 4197.",HQN890,Mon 20 Oct 2:10 p.m.,111,NA,NA,-39.019,177.329
HQN890,"Near 2742 State Highway 2, Tangoio 4181.",HQN890,Mon 20 Oct 6:15 p.m.,111,NA,NA,-39.2764,176.892
HQN890,"Near 4553 State Highway 2, Putorino 4181.",HQN890,Thu 23 Oct 7:20 a.m.,112,NA,NA,-39.1713,176.938
HQN890,"4614 State Highway 2, Putorino 4181.",HQN890,Thu 23 Oct 7:21 a.m.,113,NA,NA,-39.1684,176.95
HQN890,"Near State Highway, Kotemaori 4188.",HQN890,Thu 23 Oct 7:35 a.m.,113,NA,NA,-39.0544,177.063
HQN890,"3903-3919 State Highway, Raupunga 4189.",HQN890,Thu 23 Oct 7:40 a.m.,113,NA,NA,-39.0746,177.13
HQN890,"1023-1079 State Highway, Wairoa 4196.",HQN890,Thu 23 Oct 8:13 a.m.,111,NA,NA,-39.0302,177.531
HQN890,"Near 1335 State Highway 2, Wairoa 4196.",HQN890,Thu 23 Oct 8:14 a.m.,111,NA,NA,-39.0364,177.546
HQN890,"Near 1335 State Highway 2, Wairoa 4196.",HQN890,Thu 23 Oct 8:14 a.m.,111,NA,NA,-39.0369,177.552
HQN890,"1832-1838 State Highway, Whakaki 4196.",HQN890,Thu 23 Oct 8:16 a.m.,111,NA,NA,-39.0385,177.596
HQN890,"1908-2004 State Highway, Whakaki 4196.",HQN890,Thu 23 Oct 8:17 a.m.,115,NA,NA,-39.0412,177.607
HQN890,"Near 1952 Wharerata Road, Gisborne 4072.",HQN890,Thu 23 Oct 4:47 p.m.,118,NA,NA,-38.775,177.917
HQN890,"Near Wharerata Road, Muriwai 4072.",HQN890,Thu 23 Oct 4:48 p.m.,111,NA,NA,-38.7954,177.909
HQN890,"2727 State Highway 2, Nuhaka 4198.",HQN890,Thu 23 Oct 5:29 p.m.,111,NA,NA,-39.0408,177.694
HQN890,"Near 2549 State Highway 2, Whakaki 4198.",HQN890,Thu 23 Oct 5:31 p.m.,111,NA,NA,-39.0438,177.666
HQN890,"Near State Highway, Whakaki 4198.",HQN890,Thu 23 Oct 5:32 p.m.,112,NA,NA,-39.0474,177.631
HQN890,"1908-2004 State Highway, Whakaki 4196.",HQN890,Thu 23 Oct 5:33 p.m.,115,NA,NA,-39.0431,177.612
HQN890,"1908-2004 State Highway, Whakaki 4196.",HQN890,Thu 23 Oct 5:34 p.m.,116,NA,NA,-39.0411,177.607
HQN890,"1854-1882 State Highway, Whakaki 4196.",HQN890,Thu 23 Oct 5:34 p.m.,112,NA,NA,-39.0398,177.601
HQN890,"1832-1838 State Highway, Whakaki 4196.",HQN890,Thu 23 Oct 5:34 p.m.,112,NA,NA,-39.0384,177.596
HQN890,"Near 1488 State Highway 2, Whakaki 4196.",HQN890,Thu 23 Oct 5:36 p.m.,111,NA,NA,-39.0391,177.566
HQN890,"Near 1488 State Highway 2, Whakaki 4196.",HQN890,Thu 23 Oct 5:36 p.m.,113,NA,NA,-39.038,177.557
HQN890,"Near 634 State Highway 2, Wairoa 4197.",HQN890,Thu 23 Oct 5:56 p.m.,111,NA,NA,-39.0179,177.371
HQN890,"4285-4355 State Highway, Putorino 4181.",HQN890,Thu 23 Oct 6:39 p.m.,111,NA,NA,-39.184,176.911
HQN890,"3933-4011 State Highway, Tutira 4181.",HQN890,Thu 23 Oct 6:41 p.m.,116,NA,NA,-39.2019,176.885
HQN890,"1315-1449 State Highway, Eskdale 4182.",HQN890,Thu 23 Oct 6:59 p.m.,118,NA,NA,-39.3588,176.905
HQN890,"Near 5571 State Highway 1, Kinleith 3491.",HQN890,Tue 28 Oct 8:18 p.m.,111,NA,NA,-38.2998,175.961
HQN891,"1530 State Highway 2, Papamoa 3187.",HQN891,Tue 14 Oct 4:27 p.m.,112,NA,NA,-37.7273,176.294
HQN891,"2397-2731 State Highway, Lower Kaimai 3171.",HQN891,Thu 16 Oct 7:32 p.m.,112,NA,NA,-37.8575,175.955
HQN891,"Near 3435 State Highway 29, Te Poi 3473.",HQN891,Mon 20 Oct 2:29 p.m.,113,NA,NA,-37.8814,175.894
HQN891,"2096-2162 State Highway 29, Lower Kaimai 3171.",HQN891,Mon 20 Oct 2:39 p.m.,115,NA,NA,-37.823,175.999
HQN892,"1039-1155 State Highway, Otaki 5581.",HQN892,Thu 9 Oct 10:00 a.m.,116,NA,NA,-40.7898,175.131
HQN892,"Near 472 State Highway 1, Ohau 5570.",HQN892,Thu 9 Oct 10:13 a.m.,118,NA,NA,-40.6668,175.247
HQN892,"2019 State Highway, Tauherenikau 5771.",HQN892,Mon 20 Oct 9:53 a.m.,113,NA,NA,-41.1182,175.365
HQN893,"Near 2000 Lee Stream-Outram Road, Lee Stream 9074.",HQN893,Tue 21 Oct 4:34 p.m.,111,NA,NA,-45.8095,170.136
HQN893,"1260 Lee Stream-Outram Road, Woodside 9074.",HQN893,Tue 21 Oct 4:38 p.m.,112,NA,NA,-45.85,170.2
HQN893,"Dunedin Southern Motorway, Chain Hills 9076.",HQN893,Tue 21 Oct 4:52 p.m.,112,NA,NA,-45.8998,170.372
HQN893,"Taieri Plains Highway, Henley 9073.",HQN893,Wed 22 Oct 7:23 a.m.,114,NA,NA,-45.9791,170.15
HQN893,"Roxburgh-Ettrick Road, Ettrick 9572.",HQN893,Wed 22 Oct 8:35 a.m.,116,NA,NA,-45.6194,169.343
HQN893,"2522 Clarks Junction-Lee Stream Road, Lee Stream 9074.",HQN893,Wed 22 Oct 5:08 p.m.,113,NA,NA,-45.7965,170.108
HQN893,"Near Lee Stream-Outram Road, Lee Stream 9074.",HQN893,Wed 22 Oct 5:09 p.m.,114,NA,NA,-45.8024,170.129
HQN893,"Near Lee Stream-Outram Road, Lee Stream 9074.",HQN893,Wed 22 Oct 5:09 p.m.,114,NA,NA,-45.803,170.129
HQN893,"Near Waikouaiti-Waitati Road, Evansdale 9471.",HQN893,Fri 31 Oct 8:32 a.m.,122,NA,NA,-45.6861,170.572
HQN893,"Near 274 Palmerston-Waikouaiti Road, Waikouaiti 9472.",HQN893,Fri 31 Oct 8:44 a.m.,120,NA,NA,-45.5565,170.698
HQN893,"Near 443 Palmerston-Waikouaiti Road, Flag Swamp 9472.",HQN893,Fri 31 Oct 8:45 a.m.,114,NA,NA,-45.5481,170.703
HQN893,"Near 5010 Hampden-Palmerston Road, Bushey 9482.",HQN893,Fri 31 Oct 8:54 a.m.,115,NA,NA,-45.4691,170.784
HQN893,"Near 5010 Hampden-Palmerston Road, Bushey 9482.",HQN893,Fri 31 Oct 8:55 a.m.,113,NA,NA,-45.4689,170.79
HQN893,"Near 4142 Hampden-Palmerston Road, Hillgrove 9482.",HQN893,Fri 31 Oct 9:00 a.m.,117,NA,NA,-45.4061,170.832
HQN893,"Near Hampden-Palmerston Road, Hillgrove 9482.",HQN893,Fri 31 Oct 9:01 a.m.,113,NA,NA,-45.3985,170.839
HQN893,"Near Hampden-Palmerston Road, Hillgrove 9482.",HQN893,Fri 31 Oct 9:01 a.m.,117,NA,NA,-45.3941,170.837
HQN893,"Near 3330 Hampden-Palmerston Road, Hampden 9482.",HQN893,Fri 31 Oct 9:05 a.m.,129,NA,NA,-45.342,170.819
HQN893,"Hampden-Palmerston Road, Hampden 9410.",HQN893,Fri 31 Oct 9:05 a.m.,124,NA,NA,-45.3374,170.819
HQN893,"Near 2595 Herbert-Hampden Road, Waianakarua 9495.",HQN893,Fri 31 Oct 9:09 a.m.,113,NA,NA,-45.2802,170.803
HQN893,"2320-2358 State Highway 1, Herbert 9495.",HQN893,Fri 31 Oct 9:11 a.m.,114,NA,NA,-45.253,170.796
HQN893,"Herbert-Hampden Road, Herbert 9495.",HQN893,Fri 31 Oct 9:12 a.m.,115,NA,NA,-45.2388,170.781
HQN893,"Near 1457 Maheno-Herbert Road, Herbert 9495.",HQN893,Fri 31 Oct 9:16 a.m.,120,NA,NA,-45.1937,170.818
HQN893,"1457 Maheno-Herbert Road, Herbert 9495.",HQN893,Fri 31 Oct 9:16 a.m.,111,NA,NA,-45.1896,170.821
HQN893,"Near 274 Airedale Road, Weston, Oamaru 9492.",HQN893,Fri 31 Oct 9:30 a.m.,113,NA,NA,-45.0447,170.918
HQN893,"Near 450 Airedale Road, Weston, Oamaru 9492.",HQN893,Fri 31 Oct 9:31 a.m.,112,NA,NA,-45.0399,170.918
HQN893,"Near 857 Georgetown-Pukeuri Road, Peebles 9494.",HQN893,Fri 31 Oct 9:37 a.m.,111,NA,NA,-44.9802,170.958
HQN893,"Near Georgetown-Pukeuri Road, Awamoko 9494.",HQN893,Fri 31 Oct 9:39 a.m.,111,NA,NA,-44.9599,170.922
HQN893,"Near 2133 Duntroon-Georgetown Road, Georgetown 9494.",HQN893,Fri 31 Oct 9:45 a.m.,113,NA,NA,-44.9082,170.839
HQN893,"2133 Duntroon-Georgetown Road, Georgetown 9494.",HQN893,Fri 31 Oct 9:45 a.m.,112,NA,NA,-44.9052,170.834
HQN893,"2471 Duntroon-Georgetown Road, Black Point 9494.",HQN893,Fri 31 Oct 9:46 a.m.,118,NA,NA,-44.8994,170.824
HQN893,"2471 Duntroon-Georgetown Road, Black Point 9494.",HQN893,Fri 31 Oct 9:46 a.m.,116,NA,NA,-44.8966,170.819
HQN893,"2471 Duntroon-Georgetown Road, Black Point 9494.",HQN893,Fri 31 Oct 9:47 a.m.,111,NA,NA,-44.8911,170.809
HQN893,"Near 2471 Duntroon-Georgetown Road, Black Point 9494.",HQN893,Fri 31 Oct 9:47 a.m.,114,NA,NA,-44.8888,170.803
HQN893,"2471 Duntroon-Georgetown Road, Black Point 9494.",HQN893,Fri 31 Oct 9:47 a.m.,116,NA,NA,-44.8871,170.797
HQN893,"Duntroon-Georgetown Road, Black Point 9494.",HQN893,Fri 31 Oct 9:47 a.m.,114,NA,NA,-44.8855,170.791
HQN893,"Near Duntroon-Georgetown Road, Black Point 9494.",HQN893,Fri 31 Oct 9:48 a.m.,117,NA,NA,-44.8841,170.785
HQN893,"Duntroon-Georgetown Road, Black Point 9494.",HQN893,Fri 31 Oct 9:48 a.m.,113,NA,NA,-44.8829,170.778
HQN893,"Near 2736 Duntroon-Georgetown Road, Black Point 9494.",HQN893,Fri 31 Oct 9:48 a.m.,115,NA,NA,-44.8803,170.766
HQN893,"Near 2802 Duntroon-Georgetown Road, Kokoamo 9494.",HQN893,Fri 31 Oct 9:49 a.m.,112,NA,NA,-44.8789,170.76
HQN893,"2892 Duntroon-Georgetown Road, Kokoamo 9494.",HQN893,Fri 31 Oct 9:49 a.m.,113,NA,NA,-44.8761,170.747
HQN893,"Near 2892 Duntroon-Georgetown Road, Kokoamo 9494.",HQN893,Fri 31 Oct 9:50 a.m.,117,NA,NA,-44.8744,170.741
HQN893,"3012-3152 State Highway 83, Kokoamo 9494.",HQN893,Fri 31 Oct 9:50 a.m.,116,NA,NA,-44.8725,170.735
HQN893,"3012-3152 State Highway 83, Kokoamo 9494.",HQN893,Fri 31 Oct 9:50 a.m.,111,NA,NA,-44.8703,170.729
HQN893,"3169-3357 State Highway 83, Kokoamo 9494.",HQN893,Fri 31 Oct 9:50 a.m.,117,NA,NA,-44.8681,170.724
HQN893,"3169-3357 State Highway 83, Kokoamo 9494.",HQN893,Fri 31 Oct 9:51 a.m.,113,NA,NA,-44.8658,170.718
HQN893,"Near 3212 Duntroon-Georgetown Road, Duntroon 9494.",HQN893,Fri 31 Oct 9:51 a.m.,113,NA,NA,-44.8637,170.712
HQN893,"3154-3212 State Highway 83, Duntroon 9494.",HQN893,Fri 31 Oct 9:51 a.m.,113,NA,NA,-44.8619,170.706
HQN893,"3154-3212 State Highway 83, Duntroon 9494.",HQN893,Fri 31 Oct 9:51 a.m.,111,NA,NA,-44.8601,170.7
HQN893,"3154-3212 State Highway 83, Duntroon 9494.",HQN893,Fri 31 Oct 9:52 a.m.,112,NA,NA,-44.8584,170.693
HQN893,"3518 Kurow-Duntroon Road, Duntroon 9494.",HQN893,Fri 31 Oct 9:56 a.m.,111,NA,NA,-44.8483,170.664
HQN893,"Near 3640 Kurow-Duntroon Road, Duntroon 9494.",HQN893,Fri 31 Oct 9:56 a.m.,111,NA,NA,-44.8463,170.658
HQN893,"Near 3868 Kurow-Duntroon Road, Waikaura 9494.",HQN893,Fri 31 Oct 9:57 a.m.,113,NA,NA,-44.8426,170.639
HQN893,"Near 3868 Kurow-Duntroon Road, Waikaura 9494.",HQN893,Fri 31 Oct 9:57 a.m.,111,NA,NA,-44.841,170.633
HQN893,"4131-4247 Kurow-Duntroon Road, Otekaieke 9494.",HQN893,Fri 31 Oct 9:59 a.m.,111,NA,NA,-44.8304,170.605
HQN893,"Near 4448 Kurow-Duntroon Road, Otekaieke 9494.",HQN893,Fri 31 Oct 10:00 a.m.,115,NA,NA,-44.8267,170.573
HQN893,"4456-4626 State Highway 83, Otekaieke 9494.",HQN893,Fri 31 Oct 10:01 a.m.,117,NA,NA,-44.8235,170.568
HQN893,"4456-4626 State Highway 83, Otekaieke 9494.",HQN893,Fri 31 Oct 10:01 a.m.,114,NA,NA,-44.8204,170.563
HQN893,"4456-4626 State Highway 83, Otekaieke 9494.",HQN893,Fri 31 Oct 10:01 a.m.,118,NA,NA,-44.8167,170.559
HQN893,"4456-4626 State Highway 83, Otekaieke 9494.",HQN893,Fri 31 Oct 10:01 a.m.,119,NA,NA,-44.8132,170.555
HQN893,"Near 4636 Kurow-Duntroon Road, Otekaieke 9494.",HQN893,Fri 31 Oct 10:02 a.m.,116,NA,NA,-44.8095,170.551
HQN893,"Kurow-Duntroon Road, Otekaieke 9494.",HQN893,Fri 31 Oct 10:02 a.m.,111,NA,NA,-44.8059,170.547
HQN893,"Near 5002 Kurow-Duntroon Road, Otiake 9494.",HQN893,Fri 31 Oct 10:04 a.m.,111,NA,NA,-44.7844,170.523
HQN893,"5002-5096 Kurow-Duntroon Road, Otiake 9494.",HQN893,Fri 31 Oct 10:04 a.m.,111,NA,NA,-44.7809,170.519
HQN893,"Near Kurow-Duntroon Road, Otiake 9494.",HQN893,Fri 31 Oct 10:04 a.m.,113,NA,NA,-44.7771,170.515
HQN893,"5351-5449 Kurow-Duntroon Road, Otiake 9494.",HQN893,Fri 31 Oct 10:06 a.m.,113,NA,NA,-44.759,170.495
HQN893,"170-427 State Highway 83, Kurow 9435.",HQN893,Fri 31 Oct 10:09 a.m.,114,NA,NA,-44.7206,170.461
HQN893,"Near 342 Otematata-Kurow Road, Kurow 9435.",HQN893,Fri 31 Oct 10:11 a.m.,112,NA,NA,-44.7062,170.448
HQN893,"Near 342 Otematata-Kurow Road, Kurow 9435.",HQN893,Fri 31 Oct 10:11 a.m.,111,NA,NA,-44.7028,170.444
HQN893,"170-427 State Highway 83, Kurow 9435.",HQN893,Fri 31 Oct 10:11 a.m.,118,NA,NA,-44.7005,170.438
HQN893,"Near 427 Otematata-Kurow Road, Kurow 9435.",HQN893,Fri 31 Oct 10:11 a.m.,116,NA,NA,-44.6979,170.433
HQN893,"Near 1260 Otematata-Kurow Road, Aviemore 9435.",HQN893,Fri 31 Oct 11:26 a.m.,112,NA,NA,-44.6656,170.355
HQN893,"Near 1260 Otematata-Kurow Road, Aviemore 9435.",HQN893,Fri 31 Oct 11:26 a.m.,113,NA,NA,-44.6621,170.351
HQN893,"Near 4266 Kurow-Duntroon Road, Otekaieke 9494.",HQN893,Fri 31 Oct 1:10 p.m.,113,NA,NA,-44.8283,170.583
HQN893,"1796 Georgetown-Pukeuri Road, Awamoko 9494.",HQN893,Fri 31 Oct 2:45 p.m.,111,NA,NA,-44.9202,170.86
HQN893,"Near 1680 Georgetown-Pukeuri Road, Awamoko 9494.",HQN893,Fri 31 Oct 2:46 p.m.,111,NA,NA,-44.9321,170.88
HQN893,"1531-1571 State Highway 83, Awamoko 9494.",HQN893,Fri 31 Oct 2:47 p.m.,111,NA,NA,-44.9351,170.885
HQN893,"1531-1571 Georgetown-Pukeuri Road, Awamoko 9494.",HQN893,Fri 31 Oct 2:47 p.m.,112,NA,NA,-44.938,170.89
HQN893,"1411 Georgetown-Pukeuri Road, Awamoko 9494.",HQN893,Fri 31 Oct 2:48 p.m.,112,NA,NA,-44.9469,170.905
HQN893,"1276-1392 Georgetown-Pukeuri Road, Awamoko 9494.",HQN893,Fri 31 Oct 2:48 p.m.,114,NA,NA,-44.9537,170.914
HQN893,"Near 1276 Georgetown-Pukeuri Road, Awamoko 9494.",HQN893,Fri 31 Oct 2:49 p.m.,118,NA,NA,-44.9572,170.919
HQN893,"Near Seven Mile Road, Peebles 9494.",HQN893,Fri 31 Oct 2:50 p.m.,111,NA,NA,-44.9648,170.941
HQN893,"Seven Mile Road, Peebles 9494.",HQN893,Fri 31 Oct 2:50 p.m.,113,NA,NA,-44.9648,170.947
HQN893,"Near 893 Seven Mile Road, Peebles 9494.",HQN893,Fri 31 Oct 2:50 p.m.,113,NA,NA,-44.9647,170.954
HQN893,"Near 782 Seven Mile Road, Papakaio 9494.",HQN893,Fri 31 Oct 2:51 p.m.,113,NA,NA,-44.9647,170.973
HQN893,"Near 782 Seven Mile Road, Papakaio 9494.",HQN893,Fri 31 Oct 2:52 p.m.,113,NA,NA,-44.9646,170.98
HQN893,"Near 746 Seven Mile Road, Papakaio 9494.",HQN893,Fri 31 Oct 2:52 p.m.,118,NA,NA,-44.9646,170.987
HQN893,"Near 746 Seven Mile Road, Papakaio 9494.",HQN893,Fri 31 Oct 2:52 p.m.,118,NA,NA,-44.9646,170.993
HQN893,"Near Seven Mile Road, Papakaio 9494.",HQN893,Fri 31 Oct 2:52 p.m.,115,NA,NA,-44.9646,171
HQN893,"Near Seven Mile Road, Papakaio 9494.",HQN893,Fri 31 Oct 2:53 p.m.,115,NA,NA,-44.9646,171.006
HQN893,"Near Seven Mile Road, Papakaio 9494.",HQN893,Fri 31 Oct 2:53 p.m.,119,NA,NA,-44.9646,171.013
HQN893,"Near Seven Mile Road, Papakaio 9494.",HQN893,Fri 31 Oct 2:53 p.m.,119,NA,NA,-44.9645,171.02
HQN893,"Near Seven Mile Road, Papakaio 9494.",HQN893,Fri 31 Oct 2:53 p.m.,118,NA,NA,-44.9645,171.027
HQN893,"Near Seven Mile Road, Papakaio 9494.",HQN893,Fri 31 Oct 2:54 p.m.,120,NA,NA,-44.9645,171.033
HQN893,"Near Seven Mile Road, Papakaio 9494.",HQN893,Fri 31 Oct 2:54 p.m.,118,NA,NA,-44.9645,171.04
HQN893,"Near 148 Seven Mile Road, Papakaio 9493.",HQN893,Fri 31 Oct 2:54 p.m.,116,NA,NA,-44.9644,171.047
HQN893,"148 Seven Mile Road, Papakaio 9493.",HQN893,Fri 31 Oct 2:54 p.m.,116,NA,NA,-44.9644,171.053
HQN893,"Near 148 Seven Mile Road, Papakaio 9493.",HQN893,Fri 31 Oct 2:55 p.m.,116,NA,NA,-44.9644,171.06
HQN893,"Near 148 Seven Mile Road, Papakaio 9493.",HQN893,Fri 31 Oct 2:55 p.m.,119,NA,NA,-44.9644,171.066
HQN893,"1591-1601 State Highway 1, Waitaki Bridge 9493.",HQN893,Fri 31 Oct 2:57 p.m.,120,NA,NA,-44.9432,171.093
HQN893,"1619 Glenavy-Hilderthorpe Road, Waitaki Bridge 9493.",HQN893,Fri 31 Oct 2:58 p.m.,113,NA,NA,-44.9391,171.096
HQN893,"Near 1075 Glenavy-Hilderthorpe Road, Waitaki Bridge 9493.",HQN893,Fri 31 Oct 3:32 p.m.,115,NA,NA,-44.9875,171.062
HQN893,"Near Hilderthorpe-Pukeuri Road, Hilderthorpe 9493.",HQN893,Fri 31 Oct 3:32 p.m.,116,NA,NA,-44.9917,171.059
HQN893,"Near Hilderthorpe-Pukeuri Road, Hilderthorpe 9493.",HQN893,Fri 31 Oct 3:32 p.m.,116,NA,NA,-44.9959,171.056
HQN893,"Near Hilderthorpe-Pukeuri Road, Hilderthorpe 9493.",HQN893,Fri 31 Oct 3:33 p.m.,115,NA,NA,-45,171.053
HQN893,"471 Alma-Maheno Road, Alma 9492.",HQN893,Fri 31 Oct 4:25 p.m.,111,NA,NA,-45.1242,170.885
HQN893,"Near 691 Alma-Maheno Road, Reidston 9492.",HQN893,Fri 31 Oct 4:26 p.m.,113,NA,NA,-45.1323,170.869
HQN893,"739-879 State Highway 1, Reidston 9492.",HQN893,Fri 31 Oct 4:26 p.m.,115,NA,NA,-45.135,170.864
HQN893,"Near Herbert-Hampden Road, Hampden 9495.",HQN893,Fri 31 Oct 4:39 p.m.,111,NA,NA,-45.3014,170.816
HQN893,"Near 2932 Herbert-Hampden Road, Hampden 9495.",HQN893,Fri 31 Oct 4:40 p.m.,115,NA,NA,-45.3059,170.815
HQN893,"3075 Herbert-Hampden Road, Hampden 9410.",HQN893,Fri 31 Oct 4:40 p.m.,111,NA,NA,-45.3148,170.817
HQN893,"Near Hampden-Palmerston Road, Hampden 9482.",HQN893,Fri 31 Oct 4:43 p.m.,111,NA,NA,-45.3472,170.82
HQN893,"Near Hampden-Palmerston Road, Hampden 9482.",HQN893,Fri 31 Oct 4:43 p.m.,113,NA,NA,-45.3513,170.823
HQN893,"Near 3518 Hampden-Palmerston Road, Hampden 9482.",HQN893,Fri 31 Oct 4:43 p.m.,114,NA,NA,-45.3557,170.825
HQN893,"3617-3747 Hampden-Palmerston Road, Hillgrove 9482.",HQN893,Fri 31 Oct 4:44 p.m.,114,NA,NA,-45.3694,170.828
HQN893,"3617-3747 Hampden-Palmerston Road, Hillgrove 9482.",HQN893,Fri 31 Oct 4:44 p.m.,111,NA,NA,-45.3739,170.829
HQN893,"Hampden-Palmerston Road, Hillgrove 9482.",HQN893,Fri 31 Oct 4:44 p.m.,113,NA,NA,-45.3786,170.829
HQN893,"Near Hampden-Palmerston Road, Hillgrove 9482.",HQN893,Fri 31 Oct 4:45 p.m.,116,NA,NA,-45.3875,170.83
HQN893,"Near Hampden-Palmerston Road, Hillgrove 9482.",HQN893,Fri 31 Oct 4:45 p.m.,111,NA,NA,-45.3911,170.834
HQN893,"Near 879 Palmerston-Waikouaiti Road, Goodwood 9481.",HQN893,Fri 31 Oct 5:08 p.m.,118,NA,NA,-45.5119,170.697
HQN893,"Near Palmerston-Waikouaiti Road, Flag Swamp 9472.",HQN893,Fri 31 Oct 5:10 p.m.,125,NA,NA,-45.5544,170.7
HQN893,"Near 383 Palmerston-Waikouaiti Road, Flag Swamp 9472.",HQN893,Fri 31 Oct 5:11 p.m.,132,NA,NA,-45.556,170.698
HQN893,"Near Waikouaiti-Waitati Road, Seacliff 9471.",HQN893,Fri 31 Oct 5:21 p.m.,117,NA,NA,-45.6514,170.585
HQN893,"Near Waikouaiti-Waitati Road, Evansdale 9471.",HQN893,Fri 31 Oct 5:23 p.m.,128,NA,NA,-45.6855,170.573
HQN893,"Near Waikouaiti-Waitati Road, Evansdale 9471.",HQN893,Fri 31 Oct 5:23 p.m.,131,NA,NA,-45.6898,170.571
HQN893,"1417 Dunedin Northern Motorway, Waitati 9085.",HQN893,Fri 31 Oct 5:29 p.m.,118,NA,NA,-45.7619,170.558
HQN893,"Dunedin Northern Motorway, Mount Cargill 9085.",HQN893,Fri 31 Oct 5:29 p.m.,112,NA,NA,-45.7664,170.558
HQN893,"Dunedin Northern Motorway, Upper Waitati 9085.",HQN893,Fri 31 Oct 5:29 p.m.,118,NA,NA,-45.7709,170.557
HQN893,"Dunedin Northern Motorway, Mount Cargill 9085.",HQN893,Fri 31 Oct 5:30 p.m.,116,NA,NA,-45.7749,170.553
HQN893,"Dunedin Northern Motorway, Mount Cargill 9085.",HQN893,Fri 31 Oct 5:30 p.m.,114,NA,NA,-45.7795,170.553
HQN893,"Dunedin Northern Motorway, Mount Cargill 9085.",HQN893,Fri 31 Oct 5:30 p.m.,113,NA,NA,-45.784,170.552
HQN893,"Near Dunedin Northern Motorway, Upper Waitati 9085.",HQN893,Fri 31 Oct 5:32 p.m.,120,NA,NA,-45.7961,170.519
HQN893,"Near Dunedin Northern Motorway, Leith Valley 9010.",HQN893,Fri 31 Oct 5:33 p.m.,116,NA,NA,-45.8119,170.519
HQN893,"Near Dunedin Northern Motorway, Leith Valley 9010.",HQN893,Fri 31 Oct 5:33 p.m.,114,NA,NA,-45.8162,170.517
HQN893,"Dunedin Northern Motorway, Leith Valley 9010.",HQN893,Fri 31 Oct 5:34 p.m.,116,NA,NA,-45.8209,170.517
HQN893,"Dunedin Northern Motorway, Leith Valley 9010.",HQN893,Fri 31 Oct 5:34 p.m.,112,NA,NA,-45.8254,170.517
HQN893,"Near Dunedin Northern Motorway, Leith Valley 9010.",HQN893,Fri 31 Oct 5:34 p.m.,113,NA,NA,-45.8257,170.517
HQP101,"Near 1235 State Highway 1, Warkworth 0983.",HQP101,Wed 22 Oct 5:41 a.m.,115,NA,NA,-36.457,174.653
HQP101,"2308-2320 State Highway, Mata 0171.",HQP101,Thu 23 Oct 4:42 p.m.,112,NA,NA,-35.8761,174.41
HQP101,"Northern Gateway Toll Road, Wainui 0873.",HQP101,Thu 23 Oct 5:58 p.m.,111,NA,NA,-36.5594,174.681
HQP102,"2468-2628 State Highway 1, Brynderwyn 0587.",HQP102,Mon 6 Oct 8:50 a.m.,112,NA,NA,-36.1181,174.436
HQP102,"877-931 State Highway, Oakleigh 0171.",HQP102,Mon 6 Oct 9:18 a.m.,113,NA,NA,-35.8258,174.311
HQP102,"Near Southern Motorway, Drury 2113.",HQP102,Thu 9 Oct 8:57 a.m.,111,NA,NA,-37.0984,174.945
HQP102,"Near Southern Motorway, Drury 2113.",HQP102,Thu 9 Oct 8:58 a.m.,111,NA,NA,-37.1031,174.945
HQP102,"Near Southern Motorway, Drury 2579.",HQP102,Thu 9 Oct 9:00 a.m.,114,NA,NA,-37.1315,174.962
HQP102,"Near Southern Motorway, Ramarama 2579.",HQP102,Thu 9 Oct 9:00 a.m.,112,NA,NA,-37.1356,174.965
HQP102,"Near Southern Motorway, Ramarama 2579.",HQP102,Thu 9 Oct 9:00 a.m.,111,NA,NA,-37.1397,174.967
HQP102,"Southern Motorway, Ramarama 2579.",HQP102,Thu 9 Oct 9:00 a.m.,113,NA,NA,-37.1437,174.97
HQP102,"Near Southern Motorway, Ramarama 2579.",HQP102,Thu 9 Oct 9:01 a.m.,113,NA,NA,-37.1479,174.972
HQP102,"Near Southern Motorway, Ramarama 2579.",HQP102,Thu 9 Oct 9:01 a.m.,111,NA,NA,-37.1521,174.975
HQP102,"Near Southern Motorway, Ramarama 2579.",HQP102,Thu 9 Oct 9:02 a.m.,111,NA,NA,-37.1605,174.98
HQP102,"Near Southern Motorway, Bombay 2675.",HQP102,Thu 9 Oct 9:03 a.m.,117,NA,NA,-37.1867,174.981
HQP102,"Near Waikato Expressway, Bombay 2675.",HQP102,Thu 9 Oct 9:03 a.m.,112,NA,NA,-37.1912,174.982
HQP102,"Near Waikato Expressway, Bombay 2675.",HQP102,Thu 9 Oct 9:04 a.m.,111,NA,NA,-37.1953,174.985
HQP102,"State Highway 1, Bombay 2472.",HQP102,Thu 9 Oct 9:04 a.m.,114,NA,NA,-37.2032,174.99
HQP102,"State Highway 1, Bombay 2472.",HQP102,Thu 9 Oct 9:04 a.m.,111,NA,NA,-37.2045,174.992
HQP102,"Waikato Expressway, Bombay 2472.",HQP102,Thu 9 Oct 9:05 a.m.,117,NA,NA,-37.2146,175
HQP102,"Near State Highway 1, Pokeno 2472.",HQP102,Thu 9 Oct 9:05 a.m.,119,NA,NA,-37.2189,175.001
HQP102,"State Highway 1, Pokeno 2472.",HQP102,Thu 9 Oct 9:06 a.m.,123,NA,NA,-37.2226,175.005
HQP102,"Near Waikato Expressway, Pokeno 2472.",HQP102,Thu 9 Oct 9:06 a.m.,123,NA,NA,-37.2255,175.009
HQP102,"State Highway 1, Pokeno 2471.",HQP102,Thu 9 Oct 9:06 a.m.,125,NA,NA,-37.2285,175.014
HQP102,"Near Waikato Expressway, Pokeno 2471.",HQP102,Thu 9 Oct 9:06 a.m.,118,NA,NA,-37.2316,175.018
HQP102,"Waikato Expressway, Pokeno 2471.",HQP102,Thu 9 Oct 9:07 a.m.,115,NA,NA,-37.2358,175.02
HQP102,"Near Waikato Expressway, Pokeno 2471.",HQP102,Thu 9 Oct 9:07 a.m.,114,NA,NA,-37.2402,175.022
HQP102,"Waikato Expressway, Pokeno 2471.",HQP102,Thu 9 Oct 9:07 a.m.,117,NA,NA,-37.2438,175.025
HQP102,"Near Waikato Expressway, Pokeno 2471.",HQP102,Thu 9 Oct 9:08 a.m.,111,NA,NA,-37.2479,175.028
HQP102,"Waikato Expressway, Mercer 2474.",HQP102,Thu 9 Oct 9:10 a.m.,111,NA,NA,-37.2825,175.05
HQP102,"Near Waikato Expressway, Mercer 2474.",HQP102,Thu 9 Oct 9:10 a.m.,118,NA,NA,-37.2862,175.054
HQP102,"Near Waikato Expressway, Mercer 2474.",HQP102,Thu 9 Oct 9:11 a.m.,112,NA,NA,-37.2895,175.058
HQP102,"Waikato Expressway, Meremere 2474.",HQP102,Thu 9 Oct 9:11 a.m.,114,NA,NA,-37.2938,175.06
HQP102,"Near Waikato Expressway, Meremere 2474.",HQP102,Thu 9 Oct 9:11 a.m.,113,NA,NA,-37.2983,175.06
HQP102,"Near Waikato Expressway, Meremere 2474.",HQP102,Thu 9 Oct 9:12 a.m.,113,NA,NA,-37.3063,175.066
HQP102,"Near Waikato Expressway, Meremere 2474.",HQP102,Thu 9 Oct 9:13 a.m.,117,NA,NA,-37.3198,175.067
HQP102,"Waikato Expressway, Meremere 2474.",HQP102,Thu 9 Oct 9:13 a.m.,116,NA,NA,-37.3245,175.066
HQP102,"Near 1235 Waikato Expressway, Meremere 2474.",HQP102,Thu 9 Oct 9:13 a.m.,112,NA,NA,-37.3276,175.066
HQP102,"Near 1235 Waikato Expressway, Meremere 2474.",HQP102,Thu 9 Oct 9:13 a.m.,111,NA,NA,-37.3289,175.065
HQP102,"Near Waikato Expressway, Hampton Downs 3782.",HQP102,Thu 9 Oct 9:15 a.m.,112,NA,NA,-37.3501,175.079
HQP102,"Waikato Expressway, Hampton Downs 3782.",HQP102,Thu 9 Oct 9:15 a.m.,114,NA,NA,-37.3539,175.082
HQP102,"Near Waikato Expressway, Rangiriri 3782.",HQP102,Thu 9 Oct 9:15 a.m.,118,NA,NA,-37.3578,175.085
HQP102,"Near Waikato Expressway, Rangiriri 3782.",HQP102,Thu 9 Oct 9:16 a.m.,116,NA,NA,-37.3617,175.089
HQP102,"Near Waikato Expressway, Rangiriri 3782.",HQP102,Thu 9 Oct 9:16 a.m.,114,NA,NA,-37.3656,175.092
HQP102,"Near Waikato Expressway, Rangiriri 3782.",HQP102,Thu 9 Oct 9:16 a.m.,114,NA,NA,-37.37,175.093
HQP102,"Near Waikato Expressway, Rangiriri 3782.",HQP102,Thu 9 Oct 9:16 a.m.,115,NA,NA,-37.3742,175.095
HQP102,"Near Waikato Expressway, Rangiriri 3782.",HQP102,Thu 9 Oct 9:17 a.m.,116,NA,NA,-37.3778,175.099
HQP102,"Near Waikato Expressway, Rangiriri 3782.",HQP102,Thu 9 Oct 9:17 a.m.,115,NA,NA,-37.3815,175.103
HQP102,"Waikato Expressway, Rangiriri 3782.",HQP102,Thu 9 Oct 9:17 a.m.,116,NA,NA,-37.3859,175.104
HQP102,"Near Waikato Expressway, Rangiriri 3771.",HQP102,Thu 9 Oct 9:23 a.m.,112,NA,NA,-37.4493,175.153
HQP102,"Near 2769 Waikato Expressway, Rangiriri 3771.",HQP102,Thu 9 Oct 9:23 a.m.,112,NA,NA,-37.454,175.154
HQP102,"Waikato Expressway, Rangiriri 3771.",HQP102,Thu 9 Oct 9:24 a.m.,111,NA,NA,-37.4584,175.155
HQP102,"Near Waikato Expressway, Horotiu.",HQP102,Thu 9 Oct 9:44 a.m.,114,NA,NA,-37.6884,175.215
HQP102,"Near Waikato Expressway, Horotiu.",HQP102,Thu 9 Oct 9:44 a.m.,115,NA,NA,-37.6929,175.214
HQP102,"Near Waikato Expressway, Horotiu 3288.",HQP102,Thu 9 Oct 9:45 a.m.,121,NA,NA,-37.7108,175.207
HQP102,"Waikato Expressway, Horotiu 3288.",HQP102,Thu 9 Oct 9:46 a.m.,119,NA,NA,-37.7153,175.208
HQP102,"Near Waikato Expressway, Horotiu 3288.",HQP102,Thu 9 Oct 9:46 a.m.,111,NA,NA,-37.7199,175.208
HQP102,"Near Waikato Expressway, Horotiu 3288.",HQP102,Thu 9 Oct 9:46 a.m.,117,NA,NA,-37.7244,175.207
HQP102,"Near Waikato Expressway, Avalon, Hamilton 3288.",HQP102,Thu 9 Oct 9:46 a.m.,118,NA,NA,-37.729,175.208
HQP102,"Waikato Expressway, Avalon, Hamilton 3288.",HQP102,Thu 9 Oct 9:47 a.m.,116,NA,NA,-37.7335,175.21
HQP102,"Near Auckland-Waiwera Motorway, Dairy Flat 0794.",HQP102,Tue 14 Oct 11:22 a.m.,113,NA,NA,-36.6939,174.704
HQP102,"Auckland-Waiwera Motorway, Oteha, Auckland 0632.",HQP102,Tue 14 Oct 1:03 p.m.,115,NA,NA,-36.7228,174.714
HQP102,"Near State Highway 1, Pokeno 2472.",HQP102,Wed 29 Oct 7:27 a.m.,111,NA,NA,-37.2217,175.004
HQP102,"Near Waikato Expressway, Burbush, Horotiu 3288.",HQP102,Wed 29 Oct 4:50 p.m.,115,NA,NA,-37.7465,175.215
HQP102,"Waikato Expressway, Burbush, Horotiu 3288.",HQP102,Wed 29 Oct 4:51 p.m.,115,NA,NA,-37.742,175.213
HQP103,"Waikato Expressway, Mercer 2474.",HQP103,Thu 9 Oct 2:04 p.m.,111,NA,NA,-37.2909,175.057
HQP103,"5819 State Highway 1, Moerewa 0211.",HQP103,Sat 18 Oct 12:23 p.m.,111,NA,NA,-35.3767,174.042
HQP103,"State Highway, Whakapara 0181.",HQP103,Sun 19 Oct 12:37 p.m.,116,NA,NA,-35.5647,174.283
HQP103,"Near Auckland-Waiwera Motorway, Dairy Flat 0794.",HQP103,Tue 21 Oct 12:01 p.m.,113,NA,NA,-36.6936,174.704
HQP103,"Near Auckland-Waiwera Motorway, Dairy Flat 0794.",HQP103,Tue 21 Oct 12:01 p.m.,112,NA,NA,-36.6892,174.703
HQP103,"Near Auckland-Waiwera Motorway, Dairy Flat 0792.",HQP103,Tue 21 Oct 12:03 p.m.,115,NA,NA,-36.6662,174.676
HQP104,"Auckland-Waiwera Motorway, Albany, Auckland 0632.",HQP104,Wed 22 Oct 7:31 a.m.,113,NA,NA,-36.7244,174.715
HQP104,"Auckland-Waiwera Motorway, Albany, Auckland 0632.",HQP104,Wed 22 Oct 7:31 a.m.,114,NA,NA,-36.7199,174.713
HQP104,"Near Auckland-Waiwera Motorway, Dairy Flat 0794.",HQP104,Wed 22 Oct 7:32 a.m.,112,NA,NA,-36.7074,174.706
HQP104,"Auckland-Waiwera Motorway, Redvale 0794.",HQP104,Wed 22 Oct 7:35 a.m.,113,NA,NA,-36.6696,174.681
HQP104,"1661-1683 State Highway 1, Warkworth 0983.",HQP104,Wed 22 Oct 7:53 a.m.,115,NA,NA,-36.43,174.648
HQP104,"1661-1683 State Highway 1, Warkworth 0983.",HQP104,Wed 22 Oct 7:53 a.m.,115,NA,NA,-36.4298,174.648
HQP104,"877-931 State Highway, Oakleigh 0171.",HQP104,Wed 22 Oct 9:00 a.m.,118,NA,NA,-35.8128,174.297
HQP104,"Northern Gateway Toll Road, Orewa 0992.",HQP104,Wed 22 Oct 5:40 p.m.,111,NA,NA,-36.5889,174.664
HQP104,"2468-2628 State Highway 1, Brynderwyn 0587.",HQP104,Thu 23 Oct 7:44 a.m.,114,NA,NA,-36.1188,174.436
HQP104,"Near 4135 State Highway 1, Waipu 0582.",HQP104,Thu 23 Oct 7:55 a.m.,116,NA,NA,-36.0135,174.418
HQP104,"2443-2529 State Highway 1, Ruakaka 0171.",HQP104,Thu 23 Oct 8:06 a.m.,116,NA,NA,-35.8844,174.424
HQP104,"Near 2443 State Highway 1, Ruakaka 0171.",HQP104,Thu 23 Oct 8:06 a.m.,113,NA,NA,-35.8814,174.419
HQP104,"Near Northern Gateway Toll Road, Wainui 0873.",HQP104,Thu 23 Oct 6:06 p.m.,111,NA,NA,-36.5514,174.68
HQP104,"Near Northern Gateway Toll Road, Hatfields Beach 0873.",HQP104,Thu 23 Oct 6:07 p.m.,111,NA,NA,-36.5604,174.68
HQP104,"Near Auckland-Waiwera Motorway, Wairau Valley, Auckland 0627.",HQP104,Thu 23 Oct 6:21 p.m.,111,NA,NA,-36.7635,174.739
HQP104,"Near Auckland-Waiwera Motorway, Forrest Hill, Auckland 0627.",HQP104,Thu 23 Oct 6:22 p.m.,113,NA,NA,-36.7678,174.741
HQP104,"Auckland-Waiwera Motorway, Wairau Valley, Auckland 0627.",HQP104,Thu 23 Oct 6:22 p.m.,111,NA,NA,-36.7719,174.743
HQP105,"Near 1402 State Highway 1, Wellsford 0972.",HQP105,Wed 8 Oct 5:41 p.m.,111,NA,NA,-36.3253,174.543
HQP105,"Near 15 State Highway 1, Wellsford 0974.",HQP105,Wed 8 Oct 5:46 p.m.,115,NA,NA,-36.2787,174.516
HQP105,"1700 State Highway 1, Kaiwaka 0975.",HQP105,Wed 8 Oct 5:56 p.m.,114,NA,NA,-36.1835,174.45
HQP105,"Near 2860 State Highway 1, Brynderwyn 0587.",HQP105,Wed 8 Oct 6:03 p.m.,111,NA,NA,-36.0912,174.43
HQP105,"Near 4100 State Highway 1, Waipu 0582.",HQP105,Wed 8 Oct 6:11 p.m.,115,NA,NA,-36.0115,174.418
HQP105,"Near 2443 State Highway 1, Ruakaka 0171.",HQP105,Wed 8 Oct 6:21 p.m.,112,NA,NA,-35.8829,174.421
HQP105,"877-931 State Highway, Oakleigh 0171.",HQP105,Wed 8 Oct 6:30 p.m.,120,NA,NA,-35.8133,174.297
HQP105,"877-931 State Highway, Oakleigh 0171.",HQP105,Wed 8 Oct 6:30 p.m.,112,NA,NA,-35.8088,174.296
HQP105,"State Highway, Mata 0171.",HQP105,Fri 10 Oct 4:30 p.m.,112,NA,NA,-35.8432,174.344
HQP105,"3935 State Highway 1, Waipu 0582.",HQP105,Fri 10 Oct 4:44 p.m.,113,NA,NA,-35.9907,174.424
HQP105,"1188 State Highway 1, Topuni 0975.",HQP105,Fri 10 Oct 5:05 p.m.,111,NA,NA,-36.2119,174.476
HQP105,"1163 State Highway 1, Topuni 0975.",HQP105,Fri 10 Oct 5:05 p.m.,111,NA,NA,-36.2138,174.481
HQP105,"1057-1163 State Highway 1, Topuni 0975.",HQP105,Fri 10 Oct 5:05 p.m.,111,NA,NA,-36.2143,174.481
HQP105,"Near 1057 State Highway 1, Topuni 0975.",HQP105,Fri 10 Oct 5:05 p.m.,111,NA,NA,-36.2183,174.482
HQP105,"Near 1415B State Highway 1, Warkworth 0983.",HQP105,Fri 10 Oct 5:34 p.m.,111,NA,NA,-36.4544,174.653
HQP106,"Near Northern Gateway Toll Road, Wainui 0992.",HQP106,Thu 9 Oct 9:24 a.m.,120,NA,NA,-36.5734,174.669
HQP106,"Near Northern Gateway Toll Road, Hatfields Beach 0873.",HQP106,Thu 9 Oct 9:24 a.m.,112,NA,NA,-36.5689,174.671
HQP106,"Near Auckland-Waiwera Motorway, Redvale 0794.",HQP106,Wed 15 Oct 7:30 a.m.,113,NA,NA,-36.6688,174.68
HQP106,"Auckland-Waiwera Motorway, Silverdale 0992.",HQP106,Wed 15 Oct 7:35 a.m.,113,NA,NA,-36.6004,174.662
HQP106,"1661-1683 State Highway 1, Warkworth 0983.",HQP106,Wed 15 Oct 7:49 a.m.,116,NA,NA,-36.4304,174.649
HQP106,"42 State Highway 1, Warkworth 0981.",HQP106,Wed 15 Oct 7:55 a.m.,113,NA,NA,-36.3902,174.648
HQP106,"721 State Highway 1, Wellsford 0975.",HQP106,Wed 15 Oct 8:16 a.m.,127,NA,NA,-36.2293,174.492
HQP106,"3315 State Highway 1, Waipu 0582.",HQP106,Wed 15 Oct 8:42 a.m.,116,NA,NA,-35.9502,174.454
HQP106,"Near 2529 State Highway 1, Ruakaka 0171.",HQP106,Wed 15 Oct 8:47 a.m.,119,NA,NA,-35.8853,174.425
HQP106,"Near 4554 State Highway 1, Maromaku 0281.",HQP106,Wed 15 Oct 12:10 p.m.,111,NA,NA,-35.4602,174.09
HQP106,"6349 State Highway 1, Moerewa 0472.",HQP106,Wed 15 Oct 12:27 p.m.,115,NA,NA,-35.385,173.99
HQP106,"Near 6627 State Highway 1, Pakaraka 0472.",HQP106,Wed 15 Oct 12:29 p.m.,111,NA,NA,-35.3677,173.971
HQP106,"Near State Highway, Pakaraka 0472.",HQP106,Wed 15 Oct 12:29 p.m.,117,NA,NA,-35.3643,173.968
HQP106,"Near 6681 State Highway 1, Pakaraka 0472.",HQP106,Wed 15 Oct 12:29 p.m.,117,NA,NA,-35.3599,173.966
HQP106,"6987-7089 State Highway 1, Pakaraka 0472.",HQP106,Wed 15 Oct 12:31 p.m.,111,NA,NA,-35.3552,173.937
HQP106,"6987-7135 State Highway, Pakaraka 0472.",HQP106,Wed 15 Oct 12:31 p.m.,113,NA,NA,-35.351,173.93
HQP106,"7089-7135 State Highway 1, Pakaraka 0472.",HQP106,Wed 15 Oct 12:32 p.m.,114,NA,NA,-35.3493,173.928
HQP106,"Near 298 State Highway 1, Ohaeawai 0472.",HQP106,Wed 15 Oct 12:36 p.m.,115,NA,NA,-35.3385,173.853
HQP106,"Near 846 State Highway 1, Okaihau 0475.",HQP106,Wed 15 Oct 12:40 p.m.,114,NA,NA,-35.3257,173.805
HQP106,"Near 1051 State Highway 1, Okaihau 0475.",HQP106,Wed 15 Oct 12:41 p.m.,111,NA,NA,-35.3204,173.787
HQP106,"Near 1306 State Highway 1, Okaihau 0475.",HQP106,Wed 15 Oct 12:42 p.m.,114,NA,NA,-35.3192,173.761
HQP106,"1345 State Highway 1, Okaihau 0475.",HQP106,Wed 15 Oct 12:43 p.m.,112,NA,NA,-35.3153,173.758
HQP106,"Near 1549 State Highway 1, Okaihau 0475.",HQP106,Wed 15 Oct 12:44 p.m.,111,NA,NA,-35.303,173.742
HQP106,"1863-1879 State Highway, Okaihau 0475.",HQP106,Wed 15 Oct 12:46 p.m.,111,NA,NA,-35.2885,173.712
HQP106,"Near 2048 State Highway 1, Okaihau 0475.",HQP106,Wed 15 Oct 12:47 p.m.,114,NA,NA,-35.2876,173.696
HQP106,"2097 State Highway 1, Okaihau 0475.",HQP106,Wed 15 Oct 12:47 p.m.,112,NA,NA,-35.2894,173.691
HQP106,"Near State Highway, Okaihau 0475.",HQP106,Wed 15 Oct 12:48 p.m.,115,NA,NA,-35.2915,173.686
HQP106,"2195-2259 State Highway, Okaihau 0475.",HQP106,Wed 15 Oct 12:48 p.m.,116,NA,NA,-35.2925,173.681
HQP106,"2261-2279 State Highway, Horeke 0475.",HQP106,Wed 15 Oct 12:48 p.m.,116,NA,NA,-35.2926,173.669
HQP106,"3518 State Highway 1, Umawera 0476.",HQP106,Wed 15 Oct 12:56 p.m.,114,NA,NA,-35.2822,173.573
HQP106,"3566 State Highway 1, Umawera 0476.",HQP106,Wed 15 Oct 12:56 p.m.,113,NA,NA,-35.2778,173.571
HQP106,"Near State Highway, Mangamuka 0476.",HQP106,Wed 15 Oct 1:03 p.m.,111,NA,NA,-35.2065,173.514
HQP106,"5755-6071 State Highway, Awanui 0483.",HQP106,Wed 15 Oct 3:38 p.m.,115,NA,NA,-35.0448,173.279
HQP106,"4912 State Highway 10, Lake Ohia 0483.",HQP106,Wed 15 Oct 3:58 p.m.,112,NA,NA,-34.9945,173.358
HQP106,"2023-2029 State Highway, Totara North 0494.",HQP106,Wed 15 Oct 4:38 p.m.,115,NA,NA,-35.0164,173.639
HQP106,"Near 1473 State Highway 10, Totara North 0479.",HQP106,Wed 15 Oct 4:41 p.m.,113,NA,NA,-35.0435,173.665
HQP106,"1240-1412 State Highway, Totara North 0479.",HQP106,Wed 15 Oct 4:42 p.m.,123,NA,NA,-35.0516,173.676
HQP106,"1240-1412 State Highway, Totara North 0479.",HQP106,Wed 15 Oct 4:42 p.m.,118,NA,NA,-35.0525,173.682
HQP106,"1240-1412 State Highway, Totara North 0479.",HQP106,Wed 15 Oct 4:42 p.m.,113,NA,NA,-35.0545,173.687
HQP106,"3686 State Highway 10, Kaeo 0478.",HQP106,Wed 15 Oct 4:57 p.m.,113,NA,NA,-35.1219,173.836
HQP106,"Near 3114 State Highway 10, Kaeo 0295.",HQP106,Wed 15 Oct 4:59 p.m.,115,NA,NA,-35.124,173.873
HQP106,"1588 State Highway 1, Whakapara 0182.",HQP106,Thu 16 Oct 8:43 a.m.,118,NA,NA,-35.5503,174.28
HQP106,"Near 3817 State Highway 1, Waipu 0582.",HQP106,Thu 16 Oct 2:57 p.m.,113,NA,NA,-35.9874,174.428
HQP106,"3935 State Highway 1, Waipu 0582.",HQP106,Thu 16 Oct 2:58 p.m.,114,NA,NA,-35.991,174.424
HQP106,"Near 4482 State Highway 1, Waipu 0582.",HQP106,Thu 16 Oct 3:01 p.m.,111,NA,NA,-36.0423,174.418
HQP106,"Near 2379 State Highway 1, Kaiwaka 0587.",HQP106,Thu 16 Oct 3:10 p.m.,112,NA,NA,-36.1286,174.431
HQP106,"542 State Highway 1, Wellsford 0975.",HQP106,Thu 16 Oct 3:21 p.m.,112,NA,NA,-36.2349,174.511
HQP106,"422-490 State Highway 1, Wellsford 0975.",HQP106,Thu 16 Oct 3:22 p.m.,112,NA,NA,-36.2439,174.509
HQP106,"Near 1415B State Highway 1, Warkworth 0983.",HQP106,Thu 16 Oct 3:51 p.m.,116,NA,NA,-36.456,174.653
HQP106,"1214 State Highway 1, Pohuehue 0983.",HQP106,Thu 16 Oct 3:52 p.m.,111,NA,NA,-36.4646,174.651
HQP106,"1098-1114 State Highway 1, Pohuehue 0983.",HQP106,Thu 16 Oct 3:53 p.m.,118,NA,NA,-36.4721,174.65
HQP106,"673-683 State Highway 1, Puhoi 0983.",HQP106,Thu 16 Oct 3:55 p.m.,119,NA,NA,-36.4962,174.661
HQP106,"Near Northern Gateway Toll Road, Wainui 0992.",HQP106,Thu 16 Oct 4:01 p.m.,113,NA,NA,-36.5711,174.67
HQP106,"Near Auckland-Waiwera Motorway, Orewa 0992.",HQP106,Thu 16 Oct 4:03 p.m.,111,NA,NA,-36.598,174.663
HQP106,"Near Auckland-Waiwera Motorway, Dairy Flat 0794.",HQP106,Thu 16 Oct 4:06 p.m.,115,NA,NA,-36.6481,174.663
HQP106,"Near Auckland-Waiwera Motorway, Redvale 0792.",HQP106,Thu 16 Oct 4:09 p.m.,111,NA,NA,-36.6826,174.698
HQP106,"1661-1683 State Highway 1, Warkworth 0983.",HQP106,Mon 20 Oct 6:36 a.m.,116,NA,NA,-36.4306,174.649
HQP106,"Near 2214 State Highway 1, Kaiwaka 0573.",HQP106,Mon 20 Oct 7:10 a.m.,113,NA,NA,-36.142,174.434
HQP106,"3315 State Highway 1, Waipu 0582.",HQP106,Mon 20 Oct 7:27 a.m.,114,NA,NA,-35.9497,174.454
HQP106,"Near 2443 State Highway 1, Ruakaka 0171.",HQP106,Mon 20 Oct 7:32 a.m.,113,NA,NA,-35.8817,174.42
HQP106,"Near 1869 State Highway 1, Mata 0171.",HQP106,Mon 20 Oct 7:36 a.m.,116,NA,NA,-35.8529,174.37
HQP106,"2321-2379 State Highway 1, Kaiwaka 0587.",HQP106,Thu 23 Oct 4:26 p.m.,113,NA,NA,-36.1344,174.43
HQP107,"Near 1006 Tirau Road, Karapiro 3494.",HQP107,Tue 7 Oct 8:11 a.m.,113,NA,NA,-37.9465,175.592
HQP107,"65 White Pine Bush Road, Awakeri 3192.",HQP107,Wed 22 Oct 3:48 p.m.,115,NA,NA,-37.9995,176.904
HQP107,"881-947 State Highway, Piarere 3484.",HQP107,Thu 23 Oct 12:31 p.m.,111,NA,NA,-37.981,175.737
HQP107,"1506-1714 Tirau Road, Karapiro 3494.",HQP107,Thu 23 Oct 12:38 p.m.,112,NA,NA,-37.9479,175.641
HQP107,"1494 State Highway 1, Karapiro 3494.",HQP107,Thu 23 Oct 12:40 p.m.,118,NA,NA,-37.9483,175.615
HQP107,"Near Southern Motorway, Karaka 2580.",HQP107,Thu 30 Oct 4:51 p.m.,112,NA,NA,-37.0776,174.931
HQP108,"2096-2322 State Highway, Lower Kaimai 3171.",HQP108,Mon 6 Oct 4:55 p.m.,112,NA,NA,-37.8215,176.003
HQP108,"1878-1908 State Highway 29, Lower Kaimai 3171.",HQP108,Tue 14 Oct 6:14 p.m.,111,NA,NA,-37.8144,176.021
HQP108,"Near State Highway 1, Pokeno 2472.",HQP108,Wed 15 Oct 3:02 p.m.,113,NA,NA,-37.22,175.002
HQP108,"Near Orchard West Road, Ngatea 3576.",HQP108,Wed 15 Oct 3:33 p.m.,114,NA,NA,-37.2793,175.444
HQP108,"1506-1714 Tirau Road, Karapiro 3494.",HQP108,Fri 17 Oct 9:26 a.m.,114,NA,NA,-37.9473,175.643
HQP108,"1506-1714 Tirau Road, Karapiro 3494.",HQP108,Fri 17 Oct 9:27 a.m.,119,NA,NA,-37.9495,175.637
HQP108,"1506-1714 Tirau Road, Karapiro 3494.",HQP108,Fri 17 Oct 9:27 a.m.,119,NA,NA,-37.9515,175.632
HQP108,"814-838 State Highway 1, Karapiro 3494.",HQP108,Fri 17 Oct 9:32 a.m.,111,NA,NA,-37.9218,175.561
HQP108,"1494-1498 State Highway 1, Karapiro 3494.",HQP108,Fri 17 Oct 6:05 p.m.,117,NA,NA,-37.9496,175.617
HQP108,"2397-2731 State Highway, Lower Kaimai 3171.",HQP108,Fri 17 Oct 6:30 p.m.,113,NA,NA,-37.8569,175.956
HQP108,"2397-2731 State Highway, Lower Kaimai 3171.",HQP108,Fri 17 Oct 6:31 p.m.,115,NA,NA,-37.8529,175.958
HQP111,"190-264 State Highway, Otaki 5581.",HQP111,Wed 8 Oct 5:39 a.m.,111,NA,NA,-40.7419,175.175
HQP111,"845 State Highway 1, Te Horo 5581.",HQP111,Wed 8 Oct 5:47 a.m.,122,NA,NA,-40.8082,175.117
HQP111,"Near 763 State Highway 1, Te Horo 5581.",HQP111,Wed 8 Oct 5:47 a.m.,121,NA,NA,-40.8121,175.113
HQP111,"Near 198 Richmond Road, Brixton 4373.",HQP111,Tue 14 Oct 7:55 p.m.,113,NA,NA,-39.0342,174.212
HQP111,"Near State Highway, Whangaehu 4581.",HQP111,Wed 15 Oct 7:13 p.m.,113,NA,NA,-40.0005,175.167
HQP111,"Near State Highway, Shannon 4474.",HQP111,Tue 21 Oct 8:08 a.m.,118,NA,NA,-40.518,175.449
HQP111,"740 State Highway 57, Koputaroa 5571.",HQP111,Tue 21 Oct 8:18 a.m.,111,NA,NA,-40.581,175.359
HQP111,"984-1020 State Highway, Manakau 5573.",HQP111,Tue 21 Oct 8:31 a.m.,114,NA,NA,-40.7081,175.219
HQP111,"267 State Highway 1, Waikanae 5391.",HQP111,Tue 21 Oct 8:46 a.m.,115,NA,NA,-40.8501,175.085
HQP111,"422 State Highway, Pukerua Bay, Porirua 5026.",HQP111,Tue 21 Oct 9:11 a.m.,115,NA,NA,-41.0504,174.877
HQP111,"310 State Highway 1, Pukerua Bay, Porirua 5026.",HQP111,Tue 21 Oct 9:12 a.m.,115,NA,NA,-41.0551,174.877
HQP111,"493-563 Opiki Road, Opiki 4474.",HQP111,Tue 28 Oct 6:26 a.m.,113,NA,NA,-40.4763,175.44
HQP111,"254-444 State Highway 56, Opiki 4474.",HQP111,Tue 28 Oct 6:27 a.m.,114,NA,NA,-40.4879,175.435
HQP111,"Near 448 State Highway 57, Shannon 4474.",HQP111,Tue 28 Oct 6:30 a.m.,118,NA,NA,-40.523,175.445
HQP111,"186 State Highway 57, Levin 5510.",HQP111,Tue 28 Oct 6:41 a.m.,113,NA,NA,-40.6175,175.32
HQP111,"400 State Highway 1, Ohau 5570.",HQP111,Tue 28 Oct 6:47 a.m.,114,NA,NA,-40.6625,175.25
HQP111,"389-397 State Highway, Paekakariki 5034.",HQP111,Tue 28 Oct 3:43 p.m.,113,NA,NA,-40.9778,174.977
HQP111,"Near 1377 Rangitane Road, Tiakitahuna 4477.",HQP111,Thu 30 Oct 6:32 a.m.,112,NA,NA,-40.4222,175.474
HQP111,"65-95 State Highway 56, Opiki 4474.",HQP111,Thu 30 Oct 6:38 a.m.,113,NA,NA,-40.5038,175.45
HQP111,"916 State Highway 57, Koputaroa 5571.",HQP111,Thu 30 Oct 6:46 a.m.,118,NA,NA,-40.5776,175.381
HQP111,"834-916 State Highway 57, Koputaroa 5571.",HQP111,Thu 30 Oct 6:47 a.m.,111,NA,NA,-40.5772,175.378
HQP111,"834 State Highway 57, Koputaroa 5571.",HQP111,Thu 30 Oct 6:47 a.m.,114,NA,NA,-40.5776,175.373
HQP111,"740-826 State Highway 57, Koputaroa 5571.",HQP111,Thu 30 Oct 6:47 a.m.,112,NA,NA,-40.5788,175.367
HQP111,"284-286 Arapaepae Road, Levin 5571.",HQP111,Thu 30 Oct 6:53 a.m.,113,NA,NA,-40.6474,175.289
HQP111,"Near 97 Kimberley Road, Levin 5571.",HQP111,Thu 30 Oct 6:54 a.m.,113,NA,NA,-40.6521,175.272
HQP111,"486-528 State Highway, Koputaroa 5571.",HQP111,Thu 30 Oct 4:23 p.m.,119,NA,NA,-40.5922,175.343
HQP111,"65-95 State Highway 56, Opiki 4474.",HQP111,Thu 30 Oct 4:35 p.m.,119,NA,NA,-40.5048,175.45
HQP112,"984-1012 State Highway 1, Manakau 5573.",HQP112,Thu 9 Oct 7:58 a.m.,125,NA,NA,-40.7085,175.219
HQP112,"424-456 State Highway, Otaki 5581.",HQP112,Thu 9 Oct 8:00 a.m.,114,NA,NA,-40.7339,175.196
HQP112,"843 State Highway 1, Te Horo 5581.",HQP112,Thu 9 Oct 8:09 a.m.,123,NA,NA,-40.809,175.116
HQP112,"343 State Highway 1, Peka Peka 5391.",HQP112,Thu 9 Oct 8:12 a.m.,114,NA,NA,-40.8473,175.084
HQP112,"472 State Highway 1, Ohau 5570.",HQP112,Thu 9 Oct 5:24 p.m.,115,NA,NA,-40.6675,175.245
HQP112,"628 State Highway 57, Koputaroa 5571.",HQP112,Thu 9 Oct 5:33 p.m.,111,NA,NA,-40.5894,175.346
HQP112,"633 State Highway 57, Koputaroa 5571.",HQP112,Thu 9 Oct 5:33 p.m.,118,NA,NA,-40.5872,175.352
HQP112,"Near 944 State Highway 57, Koputaroa 5571.",HQP112,Thu 9 Oct 5:35 p.m.,114,NA,NA,-40.5733,175.39
HQP112,"Near 178 State Highway 57, Shannon 4821.",HQP112,Thu 9 Oct 5:40 p.m.,112,NA,NA,-40.5368,175.425
HQP112,"523-551 State Highway, Te Horo 5581.",HQP112,Tue 14 Oct 5:55 p.m.,111,NA,NA,-40.8295,175.095
HQP112,"4478-4482 State Highway, Marton 4787.",HQP112,Fri 17 Oct 8:12 a.m.,115,NA,NA,-40.0568,175.43
HQP112,"3805A State Highway 4, Raurimu 3989.",HQP112,Fri 17 Oct 10:30 a.m.,115,NA,NA,-39.1316,175.397
HQP112,"Near 3789A State Highway 4, Raurimu 3989.",HQP112,Fri 17 Oct 10:31 a.m.,115,NA,NA,-39.1278,175.394
HQP112,"3452 State Highway 4, Raurimu 3989.",HQP112,Fri 17 Oct 10:32 a.m.,111,NA,NA,-39.1041,175.379
HQP112,"Near 2010 State Highway 4, Owhango 3989.",HQP112,Fri 17 Oct 3:40 p.m.,112,NA,NA,-38.9836,175.377
HQP112,"Near 6306 State Highway 4, Horopito 4696.",HQP112,Fri 17 Oct 4:08 p.m.,111,NA,NA,-39.3343,175.38
HQP112,"6448 State Highway 4, Horopito 4696.",HQP112,Fri 17 Oct 4:09 p.m.,113,NA,NA,-39.3461,175.373
HQP112,"10051 State Highway 1, Taihape 4795.",HQP112,Fri 17 Oct 4:46 p.m.,124,NA,NA,-39.5743,175.712
HQP112,"5066-5067 State Highway, Taihape 4795.",HQP112,Fri 17 Oct 4:46 p.m.,115,NA,NA,-39.5796,175.719
HQP112,"5066-5067 State Highway, Taihape 4795.",HQP112,Fri 17 Oct 4:46 p.m.,115,NA,NA,-39.5797,175.721
HQP112,"Near State Highway, Taihape 4795.",HQP112,Fri 17 Oct 4:49 p.m.,118,NA,NA,-39.601,175.762
HQP112,"Near 9425 State Highway 1, Taihape 4795.",HQP112,Fri 17 Oct 4:49 p.m.,113,NA,NA,-39.6055,175.761
HQP112,"Near 5052 State Highway 1, Taihape 4795.",HQP112,Fri 17 Oct 4:51 p.m.,114,NA,NA,-39.6231,175.761
HQP112,"5031 State Highway, Taihape 4793.",HQP112,Fri 17 Oct 5:17 p.m.,113,NA,NA,-39.6916,175.812
HQP112,"5003 State Highway, Mangaweka 4794.",HQP112,Fri 17 Oct 5:25 p.m.,120,NA,NA,-39.7706,175.797
HQP112,"5000-5001 State Highway, Mangaweka 4797.",HQP112,Fri 17 Oct 5:25 p.m.,116,NA,NA,-39.7736,175.793
HQP112,"5000-5001 State Highway, Mangaweka 4797.",HQP112,Fri 17 Oct 5:25 p.m.,113,NA,NA,-39.777,175.788
HQP112,"6013 State Highway 1, Mangaweka 4774.",HQP112,Fri 17 Oct 5:30 p.m.,122,NA,NA,-39.8336,175.777
HQP112,"4336-4354 State Highway, Hunterville 4785.",HQP112,Fri 17 Oct 5:40 p.m.,116,NA,NA,-39.9099,175.638
HQP112,"1243-1255 State Highway 57, Linton 4474.",HQP112,Mon 20 Oct 8:22 a.m.,112,NA,NA,-40.4456,175.547
HQP112,"Near 944 State Highway 57, Koputaroa 5571.",HQP112,Mon 20 Oct 8:40 a.m.,112,NA,NA,-40.5744,175.39
HQP112,"562-608 State Highway, Manakau 5570.",HQP112,Mon 20 Oct 8:54 a.m.,114,NA,NA,-40.6755,175.24
HQP112,"Near 560 State Highway 3, Kai Iwi 4574.",HQP112,Thu 23 Oct 8:07 a.m.,111,NA,NA,-39.8629,174.973
HQP112,"560 State Highway 3, Kai Iwi 4574.",HQP112,Thu 23 Oct 8:07 a.m.,114,NA,NA,-39.8609,174.968
HQP112,"651-717 Mountain Road, Lepperton 4373.",HQP112,Fri 24 Oct 11:32 a.m.,111,NA,NA,-39.0808,174.2
HQP112,"1544-1584 State Highway 3, Manutahi 4598.",HQP112,Fri 24 Oct 12:41 p.m.,114,NA,NA,-39.6695,174.404
HQP112,"1544-1584 State Highway 3, Manutahi 4598.",HQP112,Fri 24 Oct 12:41 p.m.,117,NA,NA,-39.671,174.403
HQP112,"Near 275 Patea Road, Patea 4597.",HQP112,Fri 24 Oct 12:52 p.m.,116,NA,NA,-39.7468,174.504
HQP112,"State Highway, Whangaehu 4572.",HQP112,Fri 24 Oct 2:40 p.m.,117,NA,NA,-39.9809,175.145
HQP112,"Near 1004 State Highway 3, Whangaehu 4581.",HQP112,Fri 24 Oct 2:41 p.m.,111,NA,NA,-39.9857,175.155
HQP112,"State Highway, Sanson 4479.",HQP112,Tue 28 Oct 11:18 a.m.,117,NA,NA,-40.2416,175.489
HQP113,"689-743 Tennent Drive, Linton 4474.",HQP113,Tue 14 Oct 7:35 a.m.,116,NA,NA,-40.422,175.588
HQP113,"Near 472 State Highway 1, Ohau 5570.",HQP113,Wed 15 Oct 4:16 p.m.,112,NA,NA,-40.666,175.248
HQP113,"91 Kimberley Road, Levin 5571.",HQP113,Mon 20 Oct 8:32 a.m.,115,NA,NA,-40.651,175.269
HQP113,"245 State Highway 1, Otaki 5581.",HQP113,Mon 20 Oct 8:41 a.m.,111,NA,NA,-40.7401,175.181
HQP113,"243-267 State Highway, Otaki 5581.",HQP113,Wed 22 Oct 8:24 a.m.,113,NA,NA,-40.7408,175.178
HQP114,"Near 1675 South Road, Manutahi 4598.",HQP114,Tue 7 Oct 7:01 p.m.,112,NA,NA,-39.6739,174.404
HQP114,"1751-1761 South Road, Manutahi 4598.",HQP114,Tue 7 Oct 7:02 p.m.,111,NA,NA,-39.683,174.417
HQP114,"Near 1520 State Highway 3, Turakina 4789.",HQP114,Wed 8 Oct 3:00 p.m.,118,NA,NA,-40.0961,175.288
HQP114,"1520 State Highway 3, Turakina 4789.",HQP114,Wed 8 Oct 3:01 p.m.,115,NA,NA,-40.0987,175.293
HQP114,"Near State Highway, Marton 4789.",HQP114,Wed 8 Oct 3:05 p.m.,111,NA,NA,-40.1293,175.358
HQP114,"1039-1155 State Highway, Otaki 5581.",HQP114,Thu 9 Oct 4:36 p.m.,116,NA,NA,-40.79,175.131
HQP114,"139-173 Arapaepae Road, Levin 5510.",HQP114,Thu 9 Oct 5:01 p.m.,111,NA,NA,-40.618,175.319
HQP114,"Near State Highway, Shannon 4474.",HQP114,Thu 9 Oct 5:12 p.m.,111,NA,NA,-40.5304,175.435
HQP114,"459-579 State Highway 56, Opiki 4474.",HQP114,Tue 14 Oct 10:26 a.m.,113,NA,NA,-40.4771,175.439
HQP114,"398-492 State Highway, Ohau 5570.",HQP114,Tue 14 Oct 6:09 p.m.,115,NA,NA,-40.6682,175.244
HQP114,"Near 944 State Highway 57, Koputaroa 5571.",HQP114,Tue 14 Oct 6:21 p.m.,117,NA,NA,-40.5737,175.39
HQP114,"Near 434 Tennent Drive, Linton 4474.",HQP114,Tue 14 Oct 6:40 p.m.,114,NA,NA,-40.4065,175.606
HQP114,"453 Tennent Drive, Linton 4474.",HQP114,Tue 14 Oct 6:40 p.m.,113,NA,NA,-40.4048,175.604
HQP114,"Near Napier Road, Papatawa 4972.",HQP114,Fri 17 Oct 12:47 p.m.,113,NA,NA,-40.29,175.961
HQP114,"Near State Highway, Dannevirke 4972.",HQP114,Fri 17 Oct 2:42 p.m.,113,NA,NA,-40.265,176.025
HQP114,"777-779 Opiki Road, Opiki 4474.",HQP114,Tue 21 Oct 7:35 a.m.,111,NA,NA,-40.4497,175.457
HQP114,"1791-1941 State Highway, Tiakitahuna 4477.",HQP114,Wed 22 Oct 8:03 a.m.,114,NA,NA,-40.3983,175.51
HQP114,"678-758 Opiki Road, Opiki 4474.",HQP114,Wed 22 Oct 8:09 a.m.,111,NA,NA,-40.461,175.453
HQP114,"579 Opiki Road, Opiki 4474.",HQP114,Wed 22 Oct 8:09 a.m.,112,NA,NA,-40.4693,175.448
HQP114,"Near 448 State Highway 57, Shannon 4474.",HQP114,Wed 22 Oct 8:14 a.m.,111,NA,NA,-40.526,175.442
HQP114,"State Highway, Shannon 5571.",HQP114,Wed 22 Oct 4:52 p.m.,113,NA,NA,-40.5713,175.391
HQP115,"Near 109 Patea Road, Patea 4597.",HQP115,Thu 2 Oct 1:26 p.m.,113,NA,NA,-39.751,174.485
HQP115,"182-202 State Highway 3, Westmere 4574.",HQP115,Tue 7 Oct 11:11 a.m.,112,NA,NA,-39.8821,175.003
HQP115,"180 State Highway 3, Westmere 4574.",HQP115,Tue 7 Oct 11:11 a.m.,114,NA,NA,-39.8863,175.005
HQP115,"Near State Highway, Whangaehu 4581.",HQP115,Tue 7 Oct 12:09 p.m.,116,NA,NA,-40.0022,175.167
HQP115,"Near Johnsonville Porirua Motorway, Tawa, Wellington 5028.",HQP115,Thu 9 Oct 4:17 p.m.,112,NA,NA,-41.1836,174.831
HQP115,"Near Johnsonville Porirua Motorway, Tawa, Wellington 5024.",HQP115,Thu 9 Oct 4:17 p.m.,111,NA,NA,-41.1797,174.829
HQP115,"Near 491 State Highway 1, Foxton 4891.",HQP115,Tue 28 Oct 6:59 a.m.,112,NA,NA,-40.4232,175.304
HQP115,"Near 269 State Highway 1, Otaki 5581.",HQP115,Tue 28 Oct 7:28 a.m.,111,NA,NA,-40.7375,175.185
HQP115,"Near 944 State Highway 57, Koputaroa 5571.",HQP115,Tue 28 Oct 6:51 p.m.,113,NA,NA,-40.5735,175.39
HQP115,"65-95 Opiki Road, Opiki 4474.",HQP115,Tue 28 Oct 6:58 p.m.,111,NA,NA,-40.5059,175.45
HQP115,"Near State Highway, Taihape 4795.",HQP115,Wed 29 Oct 4:40 p.m.,112,NA,NA,-39.6005,175.763
HQP117,"Near 1415B State Highway 1, Warkworth 0983.",HQP117,Thu 16 Oct 8:57 a.m.,112,NA,NA,-36.4523,174.653
HQP119,"2096-2322 State Highway, Lower Kaimai 3171.",HQP119,Mon 13 Oct 1:47 p.m.,116,NA,NA,-37.8217,176.003
HQP119,"735 State Highway 2, Te Puna 3176.",HQP119,Thu 23 Oct 7:23 p.m.,120,NA,NA,-37.6976,176.059
HQP119,"2165-2257 Tauranga West Road, Aongatete 3178.",HQP119,Fri 24 Oct 7:44 a.m.,111,NA,NA,-37.6171,175.951
HQP119,"2184-2258 Tauranga West Road, Aongatete 3178.",HQP119,Fri 24 Oct 7:44 a.m.,113,NA,NA,-37.6183,175.951
HQP119,"2165-2257 Tauranga West Road, Aongatete 3178.",HQP119,Fri 24 Oct 7:44 a.m.,114,NA,NA,-37.6226,175.953
HQP120,"Near 2018 Waikato Expressway, Rangiriri 3782.",HQP120,Wed 29 Oct 2:33 p.m.,112,NA,NA,-37.3848,175.104
HQP140,"1661-1683 State Highway 1, Warkworth 0983.",HQP140,Thu 16 Oct 8:38 a.m.,119,NA,NA,-36.4296,174.648
HQP140,"State Highway 1, Pokeno 2471.",HQP140,Wed 22 Oct 9:12 a.m.,113,NA,NA,-37.2312,175.018
HQP140,"Near Waikato Expressway, Mercer 2474.",HQP140,Wed 22 Oct 9:16 a.m.,111,NA,NA,-37.2861,175.054
HQP140,"Near Waikato Expressway, Rangiriri 3782.",HQP140,Wed 22 Oct 9:24 a.m.,112,NA,NA,-37.397,175.113
HQP140,"Near Waikato Expressway, Horotiu.",HQP140,Wed 22 Oct 9:55 a.m.,113,NA,NA,-37.6931,175.214
HQP140,"Near Waikato Expressway, Horotiu 3288.",HQP140,Wed 22 Oct 9:57 a.m.,112,NA,NA,-37.7111,175.207
HQP140,"Waikato Expressway, Horotiu 3288.",HQP140,Wed 22 Oct 9:57 a.m.,111,NA,NA,-37.7156,175.208
HQP140,"Near Waikato Expressway, Avalon, Hamilton 3288.",HQP140,Wed 22 Oct 9:57 a.m.,111,NA,NA,-37.7248,175.207
HQP140,"Waikato Expressway, Avalon, Hamilton 3288.",HQP140,Wed 22 Oct 9:58 a.m.,114,NA,NA,-37.7292,175.209
HQP140,"Near State Highway 1, Avalon, Hamilton 3288.",HQP140,Wed 22 Oct 9:59 a.m.,112,NA,NA,-37.7467,175.215
HQP140,"Near 3001B State Highway 2, Waitakaruru 2471.",HQP140,Thu 23 Oct 5:16 p.m.,113,NA,NA,-37.286,175.31
HQP140,"Near Southern Motorway, Bombay 2579.",HQP140,Thu 23 Oct 5:41 p.m.,111,NA,NA,-37.1645,174.983
HQP140,"Near Southern Motorway, Ramarama 2579.",HQP140,Thu 23 Oct 5:41 p.m.,113,NA,NA,-37.16,174.98
HQP140,"Near Southern Motorway, Ramarama 2579.",HQP140,Thu 23 Oct 5:42 p.m.,111,NA,NA,-37.1378,174.966
HQP140,"Near Southern Motorway, Drury 2578.",HQP140,Thu 23 Oct 5:44 p.m.,111,NA,NA,-37.1206,174.956
HQP140,"Near Southern Motorway, Drury 2578.",HQP140,Thu 23 Oct 5:44 p.m.,113,NA,NA,-37.1198,174.955
HQP140,"Near Southern Motorway, Pahurehure, Papakura 2113.",HQP140,Thu 23 Oct 5:48 p.m.,119,NA,NA,-37.0605,174.924
HQP140,"Southern Motorway, Totara Heights, Auckland 2105.",HQP140,Thu 23 Oct 5:52 p.m.,111,NA,NA,-37.0028,174.895
HQP140,"Southern Motorway, Goodwood Heights, Auckland 2105.",HQP140,Thu 23 Oct 5:52 p.m.,111,NA,NA,-36.9988,174.892
HQP141,"1633 State Highway 2, Tangoio 4181.",HQP141,Wed 15 Oct 2:42 p.m.,113,NA,NA,-39.3341,176.911
HQP141,"2433 State Highway 2, Tangoio 4181.",HQP141,Wed 15 Oct 2:46 p.m.,117,NA,NA,-39.2991,176.877
HQP141,"Near State Highway, Putorino 4181.",HQP141,Wed 15 Oct 3:03 p.m.,113,NA,NA,-39.1639,176.957
HQP141,"Near 5235 State Highway 2, Putorino 4181.",HQP141,Wed 15 Oct 3:05 p.m.,111,NA,NA,-39.1444,176.978
HQP141,"5257 State Highway 2, Putorino 4188.",HQP141,Wed 15 Oct 3:05 p.m.,118,NA,NA,-39.142,176.983
HQP141,"Near State Highway, Kotemaori 4188.",HQP141,Wed 15 Oct 3:18 p.m.,112,NA,NA,-39.1192,176.998
HQP141,"Near 4946 State Highway 2, Kotemaori 4188.",HQP141,Wed 15 Oct 3:22 p.m.,111,NA,NA,-39.0711,177.019
HQP141,"4742 State Highway 2, Kotemaori 4188.",HQP141,Wed 15 Oct 3:24 p.m.,111,NA,NA,-39.0624,177.039
HQP141,"4692 State Highway 2, Kotemaori 4188.",HQP141,Wed 15 Oct 3:24 p.m.,112,NA,NA,-39.0597,177.044
HQP141,"Near 4583 State Highway 2, Kotemaori 4188.",HQP141,Wed 15 Oct 3:25 p.m.,113,NA,NA,-39.0526,177.059
HQP141,"Near State Highway, Kotemaori 4188.",HQP141,Wed 15 Oct 3:25 p.m.,120,NA,NA,-39.0546,177.064
HQP141,"Near 4274 State Highway 2, Kotemaori 4189.",HQP141,Wed 15 Oct 3:26 p.m.,116,NA,NA,-39.0592,177.073
HQP141,"Near 4185 State Highway 2, Kotemaori 4189.",HQP141,Wed 15 Oct 3:27 p.m.,120,NA,NA,-39.0632,177.099
HQP141,"3903-3919 State Highway, Raupunga 4189.",HQP141,Wed 15 Oct 3:29 p.m.,128,NA,NA,-39.0726,177.127
HQP141,"3903-3919 State Highway, Raupunga 4189.",HQP141,Wed 15 Oct 3:29 p.m.,120,NA,NA,-39.0753,177.132
HQP141,"Near 3436 State Highway 2, Raupunga 4189.",HQP141,Wed 15 Oct 3:31 p.m.,111,NA,NA,-39.0792,177.152
HQP141,"Near State Highway, Raupunga 4189.",HQP141,Wed 15 Oct 3:32 p.m.,112,NA,NA,-39.0857,177.163
HQP141,"State Highway, Raupunga 4189.",HQP141,Wed 15 Oct 3:32 p.m.,114,NA,NA,-39.0851,177.164
HQP141,"Near 2616 State Highway 2, Mohaka 4197.",HQP141,Wed 15 Oct 3:34 p.m.,113,NA,NA,-39.0908,177.203
HQP141,"Near 2616 State Highway 2, Mohaka 4197.",HQP141,Wed 15 Oct 3:35 p.m.,114,NA,NA,-39.0936,177.213
HQP141,"Near 2616 State Highway 2, Mohaka 4197.",HQP141,Wed 15 Oct 3:35 p.m.,114,NA,NA,-39.0934,177.213
HQP141,"2154-2172 State Highway, Raupunga 4197.",HQP141,Wed 15 Oct 3:37 p.m.,119,NA,NA,-39.0873,177.25
HQP141,"2154-2172 State Highway, Raupunga 4197.",HQP141,Wed 15 Oct 3:38 p.m.,112,NA,NA,-39.0921,177.267
HQP141,"Near State Highway, Raupunga 4197.",HQP141,Wed 15 Oct 3:41 p.m.,118,NA,NA,-39.064,177.303
HQP141,"Near State Highway, Raupunga 4197.",HQP141,Wed 15 Oct 3:41 p.m.,122,NA,NA,-39.0615,177.304
HQP141,"Near State Highway, Raupunga 4197.",HQP141,Wed 15 Oct 3:41 p.m.,115,NA,NA,-39.0597,177.304
HQP141,"Near State Highway, Raupunga 4197.",HQP141,Wed 15 Oct 3:42 p.m.,119,NA,NA,-39.0555,177.306
HQP141,"1522 State Highway 2, Wairoa 4197.",HQP141,Wed 15 Oct 3:42 p.m.,113,NA,NA,-39.0519,177.31
HQP141,"Near 1522 State Highway 2, Wairoa 4197.",HQP141,Wed 15 Oct 3:42 p.m.,116,NA,NA,-39.0474,177.311
HQP141,"Near State Highway, Raupunga 4197.",HQP141,Wed 15 Oct 3:42 p.m.,112,NA,NA,-39.0428,177.311
HQP141,"1151-1225 State Highway, Wairoa 4197.",HQP141,Wed 15 Oct 3:44 p.m.,111,NA,NA,-39.0205,177.325
HQP141,"Near State Highway, Wairoa 4197.",HQP141,Wed 15 Oct 3:44 p.m.,114,NA,NA,-39.0186,177.33
HQP141,"909 State Highway 2, Wairoa 4197.",HQP141,Wed 15 Oct 3:45 p.m.,112,NA,NA,-39.0151,177.345
HQP141,"Near 834 State Highway 2, Wairoa 4197.",HQP141,Wed 15 Oct 3:45 p.m.,112,NA,NA,-39.0162,177.351
HQP141,"Near 834 State Highway 2, Wairoa 4197.",HQP141,Wed 15 Oct 3:46 p.m.,117,NA,NA,-39.0162,177.357
HQP141,"Near 634 State Highway 2, Wairoa 4197.",HQP141,Wed 15 Oct 3:46 p.m.,118,NA,NA,-39.0168,177.363
HQP141,"Near 634 State Highway 2, Wairoa 4197.",HQP141,Wed 15 Oct 3:46 p.m.,116,NA,NA,-39.0171,177.369
HQP141,"Near 634 State Highway 2, Wairoa 4197.",HQP141,Wed 15 Oct 3:46 p.m.,114,NA,NA,-39.0173,177.369
HQP141,"538 State Highway 2, Wairoa 4193.",HQP141,Wed 15 Oct 3:47 p.m.,112,NA,NA,-39.0285,177.372
HQP141,"Near 539 State Highway 2, Wairoa 4193.",HQP141,Wed 15 Oct 3:47 p.m.,117,NA,NA,-39.0318,177.369
HQP141,"Near 539 State Highway 2, Wairoa 4193.",HQP141,Wed 15 Oct 3:48 p.m.,112,NA,NA,-39.0356,177.371
HQP141,"Near 539 State Highway 2, Wairoa 4193.",HQP141,Wed 15 Oct 3:48 p.m.,112,NA,NA,-39.0359,177.372
HQP141,"539-551 State Highway, Wairoa 4108.",HQP141,Wed 15 Oct 3:48 p.m.,116,NA,NA,-39.0376,177.377
HQP141,"539-551 State Highway, Wairoa 4108.",HQP141,Wed 15 Oct 3:48 p.m.,114,NA,NA,-39.0406,177.388
HQP141,"539-551 State Highway, Wairoa 4108.",HQP141,Wed 15 Oct 3:49 p.m.,112,NA,NA,-39.04,177.394
HQP141,"1023-1079 State Highway, Wairoa 4196.",HQP141,Wed 15 Oct 3:58 p.m.,111,NA,NA,-39.0292,177.523
HQP141,"Near 1488 State Highway 2, Whakaki 4196.",HQP141,Wed 15 Oct 4:01 p.m.,111,NA,NA,-39.0385,177.576
HQP141,"1749-1793 State Highway, Whakaki 4196.",HQP141,Wed 15 Oct 4:02 p.m.,111,NA,NA,-39.0377,177.588
HQP141,"1796 State Highway 2, Whakaki 4196.",HQP141,Wed 15 Oct 4:02 p.m.,116,NA,NA,-39.0383,177.594
HQP141,"1861 State Highway 2, Whakaki 4196.",HQP141,Wed 15 Oct 4:02 p.m.,114,NA,NA,-39.0391,177.6
HQP141,"1908-2004 State Highway, Whakaki 4196.",HQP141,Wed 15 Oct 4:02 p.m.,120,NA,NA,-39.0408,177.605
HQP141,"Near State Highway, Whakaki 4198.",HQP141,Wed 15 Oct 4:04 p.m.,118,NA,NA,-39.0476,177.63
HQP141,"2219 State Highway 2, Whakaki 4198.",HQP141,Wed 15 Oct 4:04 p.m.,116,NA,NA,-39.0468,177.636
HQP141,"Near 2271 State Highway 2, Whakaki 4198.",HQP141,Wed 15 Oct 4:04 p.m.,118,NA,NA,-39.046,177.642
HQP141,"Near 2271 State Highway 2, Whakaki 4198.",HQP141,Wed 15 Oct 4:05 p.m.,113,NA,NA,-39.0453,177.648
HQP141,"Near 2549 State Highway 2, Whakaki 4198.",HQP141,Wed 15 Oct 4:06 p.m.,111,NA,NA,-39.0439,177.671
HQP141,"Near 2549 State Highway 2, Whakaki 4198.",HQP141,Wed 15 Oct 4:06 p.m.,113,NA,NA,-39.0433,177.676
HQP141,"2855-3031 State Highway, Nuhaka 4198.",HQP141,Wed 15 Oct 4:08 p.m.,111,NA,NA,-39.0404,177.717
HQP141,"State Highway, Morere 4078.",HQP141,Wed 15 Oct 4:24 p.m.,112,NA,NA,-38.946,177.805
HQP141,"Near 4897 State Highway 2, Morere 4078.",HQP141,Wed 15 Oct 4:26 p.m.,111,NA,NA,-38.9211,177.805
HQP141,"Near State Highway, Morere 4078.",HQP141,Wed 15 Oct 4:27 p.m.,111,NA,NA,-38.9088,177.822
HQP141,"Near 2569 Wharerata Road, Muriwai 4072.",HQP141,Wed 15 Oct 4:37 p.m.,114,NA,NA,-38.8287,177.902
HQP141,"2349-2569 State Highway 2, Muriwai 4072.",HQP141,Wed 15 Oct 4:39 p.m.,120,NA,NA,-38.809,177.901
HQP141,"Near 1566 Wharerata Road, Muriwai 4072.",HQP141,Wed 15 Oct 4:43 p.m.,112,NA,NA,-38.7488,177.921
HQP141,"1566 Wharerata Road, Muriwai 4072.",HQP141,Wed 15 Oct 4:43 p.m.,112,NA,NA,-38.7475,177.92
HQP141,"1517 Wharerata Road, Muriwai 4072.",HQP141,Wed 15 Oct 4:43 p.m.,114,NA,NA,-38.7433,177.918
HQP141,"1515 Wharerata Road, Muriwai 4072.",HQP141,Wed 15 Oct 4:45 p.m.,118,NA,NA,-38.7266,177.915
HQP141,"Near 1284 Wharerata Road, Muriwai 4072.",HQP141,Wed 15 Oct 4:45 p.m.,113,NA,NA,-38.7227,177.912
HQP141,"Near 4897 State Highway 2, Morere 4078.",HQP141,Wed 15 Oct 7:00 p.m.,111,NA,NA,-38.9179,177.809
HQP141,"Near 4364 State Highway 2, Morere 4078.",HQP141,Wed 15 Oct 7:03 p.m.,119,NA,NA,-38.9543,177.79
HQP141,"4057-4089 State Highway, Morere 4078.",HQP141,Wed 15 Oct 7:04 p.m.,116,NA,NA,-38.9696,177.785
HQP141,"Near 3312 State Highway 2, Raupunga 4189.",HQP141,Wed 15 Oct 7:51 p.m.,111,NA,NA,-39.085,177.18
HQP141,"Near State Highway, Raupunga 4189.",HQP141,Wed 15 Oct 7:51 p.m.,118,NA,NA,-39.0857,177.163
HQP141,"Near 3361 State Highway 2, Raupunga 4189.",HQP141,Wed 15 Oct 7:52 p.m.,112,NA,NA,-39.0863,177.158
HQP141,"4780 State Highway 2, Kotemaori 4188.",HQP141,Wed 15 Oct 8:00 p.m.,111,NA,NA,-39.0631,177.034
HQP141,"4946 State Highway 2, Kotemaori 4188.",HQP141,Wed 15 Oct 8:01 p.m.,115,NA,NA,-39.0709,177.02
HQP141,"Near 5018 State Highway 2, Kotemaori 4188.",HQP141,Wed 15 Oct 8:02 p.m.,120,NA,NA,-39.0739,177.017
HQP141,"Near 5242 State Highway 2, Kotemaori 4188.",HQP141,Wed 15 Oct 8:03 p.m.,111,NA,NA,-39.0938,177.009
HQP141,"Near 5242 State Highway 2, Kotemaori 4188.",HQP141,Wed 15 Oct 8:03 p.m.,115,NA,NA,-39.0949,177.009
HQP141,"Near State Highway, Kotemaori 4188.",HQP141,Wed 15 Oct 8:05 p.m.,131,NA,NA,-39.1154,176.999
HQP141,"Near State Highway, Kotemaori 4188.",HQP141,Wed 15 Oct 8:05 p.m.,116,NA,NA,-39.1197,176.998
HQP141,"Near 5294 State Highway 2, Putorino 4181.",HQP141,Wed 15 Oct 8:08 p.m.,117,NA,NA,-39.1399,176.987
HQP141,"Near 4949 State Highway 2, Putorino 4181.",HQP141,Wed 15 Oct 8:10 p.m.,111,NA,NA,-39.1533,176.961
HQP141,"4614 State Highway 2, Putorino 4181.",HQP141,Wed 15 Oct 8:11 p.m.,127,NA,NA,-39.1682,176.951
HQP141,"3450-3486 State Highway, Tutira 4181.",HQP141,Wed 15 Oct 8:21 p.m.,121,NA,NA,-39.2456,176.884
HQP141,"Near 2445 State Highway 2, Tangoio 4181.",HQP141,Wed 15 Oct 8:27 p.m.,120,NA,NA,-39.29,176.88
HQP141,"Near 1315 State Highway 2, Eskdale 4182.",HQP141,Wed 15 Oct 8:34 p.m.,111,NA,NA,-39.3666,176.899
HQP141,"1163-1279 State Highway, Eskdale 4182.",HQP141,Wed 15 Oct 8:34 p.m.,111,NA,NA,-39.3708,176.896
HQP141,"Near 2565 State Highway 5, Te Pohue 4182.",HQP141,Wed 15 Oct 8:50 p.m.,123,NA,NA,-39.2812,176.709
HQP141,"1328-1534 Napier-Taupo Road, Glengarry 4182.",HQP141,Thu 16 Oct 7:22 a.m.,111,NA,NA,-39.3503,176.774
HQP141,"1328-1534 Napier-Taupo Road, Glengarry 4182.",HQP141,Thu 16 Oct 7:22 a.m.,111,NA,NA,-39.3502,176.774
HQP141,"1328-1534 Napier-Taupo Road, Glengarry 4182.",HQP141,Thu 16 Oct 7:22 a.m.,113,NA,NA,-39.3485,176.78
HQP141,"State Highway, Putorino 4181.",HQP141,Wed 22 Oct 6:46 a.m.,123,NA,NA,-39.1729,176.935
HQP141,"4553-4614 State Highway 2, Putorino 4181.",HQP141,Wed 22 Oct 6:46 a.m.,125,NA,NA,-39.1706,176.94
HQP141,"4614 State Highway 2, Putorino 4181.",HQP141,Wed 22 Oct 6:46 a.m.,122,NA,NA,-39.1691,176.946
HQP141,"4614 State Highway 2, Putorino 4181.",HQP141,Wed 22 Oct 6:46 a.m.,119,NA,NA,-39.1681,176.952
HQP141,"State Highway, Putorino 4181.",HQP141,Wed 22 Oct 6:47 a.m.,112,NA,NA,-39.1657,176.956
HQP141,"State Highway, Putorino 4181.",HQP141,Wed 22 Oct 6:47 a.m.,113,NA,NA,-39.1651,176.957
HQP141,"Near State Highway, Kotemaori 4188.",HQP141,Wed 22 Oct 7:00 a.m.,120,NA,NA,-39.0547,177.065
HQP141,"3903-3919 State Highway, Raupunga 4189.",HQP141,Wed 22 Oct 7:05 a.m.,118,NA,NA,-39.0751,177.131
HQP141,"Near 2271 State Highway 2, Whakaki 4198.",HQP141,Wed 22 Oct 7:44 a.m.,121,NA,NA,-39.0455,177.646
HQP141,"Near 1952 Wharerata Road, Gisborne 4072.",HQP141,Thu 23 Oct 1:51 p.m.,113,NA,NA,-38.7744,177.917
HQP141,"2855-3031 State Highway, Nuhaka 4198.",HQP141,Thu 23 Oct 2:22 p.m.,113,NA,NA,-39.0405,177.717
HQP141,"1335 State Highway 2, Wairoa 4196.",HQP141,Thu 23 Oct 2:33 p.m.,118,NA,NA,-39.0363,177.546
HQP141,"1023-1079 State Highway, Wairoa 4196.",HQP141,Thu 23 Oct 2:34 p.m.,111,NA,NA,-39.0314,177.536
HQP141,"1023-1079 State Highway, Wairoa 4196.",HQP141,Thu 23 Oct 2:34 p.m.,113,NA,NA,-39.0301,177.53
HQP141,"Near 4583 State Highway 2, Kotemaori 4188.",HQP141,Thu 23 Oct 3:14 p.m.,113,NA,NA,-39.055,177.052
HQP141,"State Highway, Kotemaori 4188.",HQP141,Thu 23 Oct 3:17 p.m.,111,NA,NA,-39.069,177.024
HQP141,"4614 State Highway 2, Putorino 4181.",HQP141,Thu 23 Oct 3:28 p.m.,114,NA,NA,-39.1683,176.951
HQP142,"Near 944 State Highway 57, Koputaroa 5571.",HQP142,Wed 15 Oct 10:03 a.m.,111,NA,NA,-40.5733,175.39
HQP142,"84-86 Paierau Road, Opaki 5881.",HQP142,Mon 20 Oct 1:57 p.m.,115,NA,NA,-40.8737,175.639
HQP143,"674-710 State Highway 1, Goodwood 9481.",HQP143,Wed 22 Oct 5:18 p.m.,122,NA,NA,-45.531,170.698
HQP144,"523-551 State Highway, Te Horo 5581.",HQP144,Tue 21 Oct 8:29 a.m.,111,NA,NA,-40.8298,175.095
HQP144,"Near 944 State Highway 57, Koputaroa 5571.",HQP144,Tue 21 Oct 8:57 a.m.,111,NA,NA,-40.5754,175.39
HQP144,"Near 944 State Highway 57, Koputaroa 5571.",HQP144,Tue 21 Oct 8:58 a.m.,114,NA,NA,-40.5748,175.39
HQP144,"486-528 State Highway, Koputaroa 5571.",HQP144,Tue 21 Oct 4:06 p.m.,113,NA,NA,-40.5947,175.341
HQP144,"Near 944 State Highway 57, Koputaroa 5571.",HQP144,Thu 30 Oct 8:39 a.m.,111,NA,NA,-40.5741,175.39
HQP151,"Near Christchurch Southern Motorway, Wigram, Christchurch 8024.",HQP151,Mon 20 Oct 10:43 a.m.,113,NA,NA,-43.5459,172.59
HQP151,"Near Christchurch Southern Motorway, Wigram, Christchurch 8024.",HQP151,Mon 20 Oct 10:44 a.m.,112,NA,NA,-43.5463,172.584
HQP152,"1347 Rakaia Highway, Chertsey 7772.",HQP152,Wed 22 Oct 8:23 a.m.,115,NA,NA,-43.8172,171.898
HQP152,"Near 834 Temuka-Orari Highway, Orari 7986.",HQP152,Wed 22 Oct 9:06 a.m.,115,NA,NA,-44.1525,171.291
HQP152,"Near Herbert-Hampden Road, Herbert 9495.",HQP152,Wed 22 Oct 10:54 a.m.,116,NA,NA,-45.2338,170.781
HQP152,"Dunedin Northern Motorway, Mount Cargill 9085.",HQP152,Thu 23 Oct 1:33 p.m.,132,NA,NA,-45.7838,170.552
HQP152,"Dunedin Northern Motorway, Mount Cargill 9085.",HQP152,Thu 23 Oct 1:33 p.m.,118,NA,NA,-45.7792,170.553
HQP152,"2406-2414 Waikouaiti-Waitati Road, Seacliff 9471.",HQP152,Thu 23 Oct 1:40 p.m.,113,NA,NA,-45.6762,170.571
HQP152,"2529 Waikouaiti-Waitati Road, Seacliff 9471.",HQP152,Thu 23 Oct 1:41 p.m.,115,NA,NA,-45.664,170.579
HQP152,"4774 Hampden-Palmerston Road, Shag Point 9482.",HQP152,Thu 23 Oct 2:05 p.m.,111,NA,NA,-45.4566,170.809
HQP152,"Near 1457 Maheno-Herbert Road, Herbert 9495.",HQP152,Thu 23 Oct 2:24 p.m.,116,NA,NA,-45.1919,170.82
HQP152,"1257 Maheno-Herbert Road, Maheno 9495.",HQP152,Thu 23 Oct 2:25 p.m.,118,NA,NA,-45.1843,170.827
HQP152,"1257 Maheno-Herbert Road, Maheno 9495.",HQP152,Thu 23 Oct 2:25 p.m.,119,NA,NA,-45.1804,170.831
HQP152,"Near 1253 Maheno-Herbert Road, Maheno 9495.",HQP152,Thu 23 Oct 2:25 p.m.,120,NA,NA,-45.1759,170.833
HQP152,"Alma-Maheno Road, Reidston 9492.",HQP152,Thu 23 Oct 2:28 p.m.,122,NA,NA,-45.1514,170.847
HQP152,"907-911 State Highway 1, Reidston 9492.",HQP152,Thu 23 Oct 2:28 p.m.,114,NA,NA,-45.1473,170.85
HQP152,"Near 877 Alma-Maheno Road, Reidston 9492.",HQP152,Thu 23 Oct 2:28 p.m.,119,NA,NA,-45.1433,170.854
HQP152,"739-877 Alma-Maheno Road, Reidston 9492.",HQP152,Thu 23 Oct 2:29 p.m.,124,NA,NA,-45.1398,170.858
HQP152,"691 Alma-Maheno Road, Reidston 9492.",HQP152,Thu 23 Oct 2:29 p.m.,119,NA,NA,-45.1331,170.867
HQP152,"Near 691 Alma-Maheno Road, Reidston 9492.",HQP152,Thu 23 Oct 2:30 p.m.,120,NA,NA,-45.1302,170.872
HQP152,"471 Alma-Maheno Road, Alma 9492.",HQP152,Thu 23 Oct 2:30 p.m.,118,NA,NA,-45.1252,170.883
HQP152,"471 Alma-Maheno Road, Alma 9492.",HQP152,Thu 23 Oct 2:30 p.m.,114,NA,NA,-45.1225,170.888
HQP152,"Near Hilderthorpe-Pukeuri Road, Richmond 9493.",HQP152,Thu 23 Oct 2:55 p.m.,121,NA,NA,-45.0228,171.037
HQP152,"Near Waimate Highway, Waimate 7979.",HQP152,Thu 23 Oct 3:13 p.m.,115,NA,NA,-44.7845,171.099
HQP152,"Waimate Highway, Waimate 7980.",HQP152,Thu 23 Oct 3:14 p.m.,112,NA,NA,-44.7578,171.108
HQP152,"2418-2488 State Highway 1, Makikihi 7980.",HQP152,Thu 23 Oct 3:18 p.m.,113,NA,NA,-44.7051,171.13
HQP152,"Near 2070 Waimate Highway, Makikihi 7978.",HQP152,Thu 23 Oct 3:20 p.m.,114,NA,NA,-44.6694,171.132
HQP152,"Near 819 Timaru-Pareora Highway, Pareora 7971.",HQP152,Thu 23 Oct 3:34 p.m.,131,NA,NA,-44.4824,171.202
HQP152,"879 Timaru-Pareora Highway, Pareora 7971.",HQP152,Thu 23 Oct 3:34 p.m.,114,NA,NA,-44.4783,171.204
HQP152,"Near 661 Timaru-Pareora Highway, Pareora 7971.",HQP152,Thu 23 Oct 3:35 p.m.,114,NA,NA,-44.4691,171.218
HQP152,"Near 569 Timaru-Pareora Highway, Pareora 7971.",HQP152,Thu 23 Oct 3:35 p.m.,113,NA,NA,-44.4651,171.221
HQP152,"Near 557 Timaru-Pareora Highway, Normanby 7971.",HQP152,Thu 23 Oct 3:36 p.m.,124,NA,NA,-44.4589,171.231
HQP152,"Near 282 Timaru-Pareora Highway, Salisbury 7971.",HQP152,Thu 23 Oct 3:37 p.m.,114,NA,NA,-44.441,171.236
HQP152,"Near Timaru-Pareora Highway, Salisbury 7971.",HQP152,Thu 23 Oct 3:37 p.m.,123,NA,NA,-44.4367,171.239
HQP152,"Near 239 Timaru-Temuka Highway, Levels 7973.",HQP152,Thu 23 Oct 3:54 p.m.,113,NA,NA,-44.3243,171.244
HQP152,"737-775 Timaru-Temuka Highway, Kerrytown 7973.",HQP152,Thu 23 Oct 3:56 p.m.,118,NA,NA,-44.2889,171.256
HQP152,"Near Orari-Rangitata Highway, Belfield 7992.",HQP152,Thu 23 Oct 4:12 p.m.,123,NA,NA,-44.1091,171.314
HQP152,"Near Orari-Rangitata Highway, Belfield 7992.",HQP152,Thu 23 Oct 4:14 p.m.,111,NA,NA,-44.0932,171.327
HQP152,"Near 961 Rangitata Highway, Ealing 7773.",HQP152,Thu 23 Oct 4:20 p.m.,118,NA,NA,-44.0368,171.451
HQP152,"Near 961 Rangitata Highway, Ealing 7773.",HQP152,Thu 23 Oct 4:21 p.m.,123,NA,NA,-44.0353,171.457
HQP152,"843-953 Rangitata Highway, Ealing 7773.",HQP152,Thu 23 Oct 4:21 p.m.,112,NA,NA,-44.0337,171.463
HQP152,"Near 961 Rangitata Highway, Ealing 7773.",HQP152,Thu 23 Oct 4:21 p.m.,114,NA,NA,-44.0321,171.469
HQP152,"Near Rangitata Highway, Hinds 7773.",HQP152,Thu 23 Oct 4:23 p.m.,121,NA,NA,-44.0215,171.511
HQP152,"Near Rangitata Highway, Hinds 7773.",HQP152,Thu 23 Oct 4:24 p.m.,115,NA,NA,-44.02,171.518
HQP152,"Rangitata Highway, Hinds 7773.",HQP152,Thu 23 Oct 4:24 p.m.,111,NA,NA,-44.0184,171.523
HQP152,"Near Rangitata Highway, Hinds 7773.",HQP152,Thu 23 Oct 4:25 p.m.,113,NA,NA,-44.0125,171.548
HQP152,"Near 1347 Rakaia Highway, Chertsey 7772.",HQP152,Thu 23 Oct 5:00 p.m.,111,NA,NA,-43.8157,171.901
HQP152,"1971-2085 State Highway 1, Rakaia 7772.",HQP152,Thu 23 Oct 5:04 p.m.,111,NA,NA,-43.7876,171.967
HQP152,"1985-2085 Rakaia Highway, Rakaia 7772.",HQP152,Thu 23 Oct 5:04 p.m.,111,NA,NA,-43.7853,171.972
HQP152,"State Highway 1, Rakaia 7781.",HQP152,Thu 23 Oct 5:07 p.m.,111,NA,NA,-43.7633,172.021
HQP152,"Near 1122 Main Rakaia Road, Southbridge 7783.",HQP152,Thu 23 Oct 5:12 p.m.,115,NA,NA,-43.7371,172.085
HQP152,"1045 Main Rakaia Road, Southbridge 7783.",HQP152,Thu 23 Oct 5:12 p.m.,111,NA,NA,-43.7391,172.091
HQP152,"Near 222 Kings Road, Southbridge 7682.",HQP152,Thu 23 Oct 5:21 p.m.,111,NA,NA,-43.7424,172.224
HQP80,"Near 3134 Old West Coast Road, Darfield 7571.",HQP80,Wed 1 Oct 7:29 a.m.,117,NA,NA,-43.4337,172.142
HQP80,"Near 3134 Old West Coast Road, Darfield 7571.",HQP80,Wed 1 Oct 7:30 a.m.,117,NA,NA,-43.4314,172.136
HQP80,"3716 Old West Coast Road, Sheffield 7571.",HQP80,Wed 1 Oct 7:34 a.m.,113,NA,NA,-43.403,172.058
HQP80,"Near 5828 West Coast Road, Springfield 7681.",HQP80,Wed 1 Oct 7:44 a.m.,114,NA,NA,-43.3304,171.902
HQP80,"6216 West Coast Road, Springfield 7580.",HQP80,Wed 1 Oct 7:44 a.m.,115,NA,NA,-43.3304,171.896
HQP80,"6216 West Coast Road, Springfield 7580.",HQP80,Wed 1 Oct 7:44 a.m.,111,NA,NA,-43.3304,171.89
HQP80,"6216 West Coast Road, Springfield 7580.",HQP80,Wed 1 Oct 7:44 a.m.,116,NA,NA,-43.3304,171.884
HQP80,"6216 West Coast Road, Springfield 7580.",HQP80,Wed 1 Oct 7:45 a.m.,111,NA,NA,-43.3304,171.877
HQP80,"Near West Coast Road, Springfield 7580.",HQP80,Wed 1 Oct 7:46 a.m.,116,NA,NA,-43.3274,171.852
HQP80,"7523-7528 West Coast Road, Springfield 7580.",HQP80,Wed 1 Oct 7:50 a.m.,113,NA,NA,-43.322,171.782
HQP80,"8557-8639 State Highway 73, Castle Hill 7580.",HQP80,Wed 1 Oct 8:02 a.m.,114,NA,NA,-43.2276,171.725
HQP80,"Near West Coast Road, Lake Pearson 7580.",HQP80,Wed 1 Oct 8:07 a.m.,130,NA,NA,-43.1891,171.733
HQP80,"Near West Coast Road, Lake Pearson 7580.",HQP80,Wed 1 Oct 8:07 a.m.,118,NA,NA,-43.185,171.73
HQP80,"Near 9613 West Coast Road, Lake Pearson 7580.",HQP80,Wed 1 Oct 8:08 a.m.,121,NA,NA,-43.1769,171.725
HQP80,"Near 9613 West Coast Road, Lake Pearson 7580.",HQP80,Wed 1 Oct 8:08 a.m.,120,NA,NA,-43.1725,171.724
HQP80,"Near 9613 West Coast Road, Lake Pearson 7580.",HQP80,Wed 1 Oct 8:09 a.m.,116,NA,NA,-43.1637,171.724
HQP80,"West Coast Road, Lake Pearson 7580.",HQP80,Wed 1 Oct 8:09 a.m.,114,NA,NA,-43.1595,171.727
HQP80,"Near West Coast Road, Craigieburn Forest Park 7580.",HQP80,Wed 1 Oct 8:09 a.m.,114,NA,NA,-43.1517,171.733
HQP80,"10508-10998 State Highway 73, Lake Pearson 7580.",HQP80,Wed 1 Oct 8:17 a.m.,119,NA,NA,-43.0934,171.778
HQP80,"10508-10998 State Highway 73, Lake Pearson 7580.",HQP80,Wed 1 Oct 8:19 a.m.,122,NA,NA,-43.072,171.768
HQP80,"10508-10998 State Highway 73, Lake Pearson 7580.",HQP80,Wed 1 Oct 8:19 a.m.,118,NA,NA,-43.0676,171.765
HQP80,"West Coast Road, Lake Pearson 7580.",HQP80,Wed 1 Oct 8:21 a.m.,112,NA,NA,-43.0416,171.752
HQP80,"Near West Coast Road, Lake Pearson 7580.",HQP80,Wed 1 Oct 8:21 a.m.,112,NA,NA,-43.0372,171.75
HQP80,"Near 11626 West Coast Road, Bealey 7580.",HQP80,Wed 1 Oct 8:22 a.m.,117,NA,NA,-43.0237,171.748
HQP80,"Near 11626 West Coast Road, Bealey 7580.",HQP80,Wed 1 Oct 8:22 a.m.,111,NA,NA,-43.019,171.747
HQP80,"Near West Coast Road, Bealey 7580.",HQP80,Wed 1 Oct 8:27 a.m.,116,NA,NA,-43.0312,171.671
HQP80,"Near West Coast Road, Bealey 7580.",HQP80,Wed 1 Oct 8:27 a.m.,113,NA,NA,-43.0312,171.665
HQP80,"Arthur's Pass National Park 12999-13190 West Coast Road, Arthur's Pass 7875.",HQP80,Wed 1 Oct 8:32 a.m.,116,NA,NA,-43.0134,171.59
HQP80,"Arthur's Pass National Park 12999-13190 West Coast Road, Arthur's Pass 7875.",HQP80,Wed 1 Oct 8:32 a.m.,113,NA,NA,-43.0088,171.589
HQP80,"Near Arthur's Pass National Park 14331 West Coast Road, Arthur's Pass 7875.",HQP80,Wed 1 Oct 8:42 a.m.,114,NA,NA,-42.9121,171.559
HQP80,"Near 6435 Otira Highway, Otira 7875.",HQP80,Wed 1 Oct 8:54 a.m.,111,NA,NA,-42.7945,171.59
HQP80,"Near 6435 Otira Highway, Otira 7875.",HQP80,Wed 1 Oct 8:54 a.m.,134,NA,NA,-42.7918,171.595
HQP80,"Near 5499 Otira Highway, Otira 7875.",HQP80,Wed 1 Oct 8:56 a.m.,118,NA,NA,-42.7771,171.618
HQP80,"4859 Otira Highway, Jacksons 7875.",HQP80,Wed 1 Oct 8:58 a.m.,118,NA,NA,-42.7627,171.587
HQP80,"Near 3958 Otira Highway, Jacksons 7875.",HQP80,Wed 1 Oct 9:05 a.m.,111,NA,NA,-42.7419,171.464
HQP80,"Near 3958 Otira Highway, Jacksons 7875.",HQP80,Wed 1 Oct 9:05 a.m.,114,NA,NA,-42.7405,171.461
HQP80,"Near 3958 Otira Highway, Jacksons 7875.",HQP80,Wed 1 Oct 9:05 a.m.,112,NA,NA,-42.7392,171.46
HQP80,"3958 Otira Highway, Jacksons 7875.",HQP80,Wed 1 Oct 9:07 a.m.,112,NA,NA,-42.7406,171.427
HQP80,"3958 Otira Highway, Jacksons 7875.",HQP80,Wed 1 Oct 9:08 a.m.,122,NA,NA,-42.751,171.407
HQP80,"Near 3255 Otira Highway, Turiwhate 7875.",HQP80,Wed 1 Oct 9:09 a.m.,114,NA,NA,-42.761,171.387
HQP80,"3066-3222 Otira Highway, Turiwhate 7875.",HQP80,Wed 1 Oct 9:11 a.m.,111,NA,NA,-42.7677,171.354
HQP80,"3066-3222 Otira Highway, Turiwhate 7875.",HQP80,Wed 1 Oct 9:12 a.m.,118,NA,NA,-42.7649,171.343
HQP80,"3066-3222 Otira Highway, Turiwhate 7875.",HQP80,Wed 1 Oct 9:12 a.m.,111,NA,NA,-42.7628,171.338
HQP80,"3066-3222 Otira Highway, Turiwhate 7875.",HQP80,Wed 1 Oct 9:12 a.m.,114,NA,NA,-42.7584,171.327
HQP80,"Near 2002 Otira Highway, Turiwhate 7875.",HQP80,Wed 1 Oct 9:16 a.m.,116,NA,NA,-42.7312,171.272
HQP80,"Near 2002 Otira Highway, Turiwhate 7875.",HQP80,Wed 1 Oct 9:17 a.m.,116,NA,NA,-42.73,171.252
HQP80,"Near Otira Highway, Dillmanstown 7832.",HQP80,Wed 1 Oct 9:23 a.m.,111,NA,NA,-42.6621,171.206
HQP80,"Near Otira Highway, Kumara Junction 7832.",HQP80,Wed 1 Oct 3:53 p.m.,111,NA,NA,-42.6044,171.154
HQP80,"Near Otira Highway, Dillmanstown 7832.",HQP80,Wed 1 Oct 3:59 p.m.,113,NA,NA,-42.6695,171.211
HQP80,"3066-3222 Otira Highway, Turiwhate 7875.",HQP80,Wed 1 Oct 4:10 p.m.,113,NA,NA,-42.7665,171.347
HQP80,"2839-3066 Otira Highway, Turiwhate 7875.",HQP80,Wed 1 Oct 4:11 p.m.,111,NA,NA,-42.7637,171.363
HQP80,"3958 Otira Highway, Jacksons 7875.",HQP80,Wed 1 Oct 4:13 p.m.,112,NA,NA,-42.7521,171.405
HQP80,"3958 Otira Highway, Jacksons 7875.",HQP80,Wed 1 Oct 4:14 p.m.,111,NA,NA,-42.7444,171.421
HQP80,"3958 Otira Highway, Jacksons 7875.",HQP80,Wed 1 Oct 4:16 p.m.,113,NA,NA,-42.7361,171.453
HQP80,"Near 3958 Otira Highway, Jacksons 7875.",HQP80,Wed 1 Oct 4:16 p.m.,111,NA,NA,-42.7381,171.458
HQP80,"Near 3958 Otira Highway, Jacksons 7875.",HQP80,Wed 1 Oct 4:16 p.m.,111,NA,NA,-42.7414,171.463
HQP80,"Near 4238 Otira Highway, Jacksons 7875.",HQP80,Wed 1 Oct 4:17 p.m.,116,NA,NA,-42.7417,171.469
HQP80,"Near 4238 Otira Highway, Jacksons 7875.",HQP80,Wed 1 Oct 4:17 p.m.,113,NA,NA,-42.7436,171.475
HQP80,"Near 4238 Otira Highway, Jacksons 7875.",HQP80,Wed 1 Oct 4:18 p.m.,111,NA,NA,-42.743,171.487
HQP80,"4238 Otira Highway, Jacksons 7875.",HQP80,Wed 1 Oct 4:18 p.m.,115,NA,NA,-42.7429,171.499
HQP80,"Near 4859 Otira Highway, Jacksons 7875.",HQP80,Wed 1 Oct 4:21 p.m.,111,NA,NA,-42.7572,171.556
HQP80,"Near 6435 Otira Highway, Otira 7875.",HQP80,Wed 1 Oct 4:28 p.m.,117,NA,NA,-42.7936,171.592
HQP80,"Arthur's Pass National Park 12999-13190 West Coast Road, Arthur's Pass 7875.",HQP80,Wed 1 Oct 4:51 p.m.,116,NA,NA,-43.0098,171.589
HQP80,"12648 West Coast Road, Bealey 7580.",HQP80,Wed 1 Oct 4:55 p.m.,113,NA,NA,-43.0273,171.644
HQP80,"Near West Coast Road, Bealey 7580.",HQP80,Wed 1 Oct 4:56 p.m.,113,NA,NA,-43.0318,171.662
HQP80,"Near West Coast Road, Bealey 7580.",HQP80,Wed 1 Oct 4:57 p.m.,118,NA,NA,-43.0309,171.668
HQP80,"Near West Coast Road, Bealey 7580.",HQP80,Wed 1 Oct 4:57 p.m.,121,NA,NA,-43.0318,171.674
HQP80,"Near 11626 West Coast Road, Bealey 7580.",HQP80,Wed 1 Oct 5:02 p.m.,120,NA,NA,-43.0217,171.747
HQP80,"Near 11626 West Coast Road, Bealey 7580.",HQP80,Wed 1 Oct 5:03 p.m.,112,NA,NA,-43.0263,171.748
HQP80,"Near West Coast Road, Lake Pearson 7580.",HQP80,Wed 1 Oct 5:04 p.m.,111,NA,NA,-43.044,171.753
HQP80,"Near West Coast Road, Lake Pearson 7580.",HQP80,Wed 1 Oct 5:04 p.m.,111,NA,NA,-43.0483,171.755
HQP80,"Near 11075 West Coast Road, Lake Pearson 7580.",HQP80,Wed 1 Oct 5:04 p.m.,113,NA,NA,-43.0527,171.757
HQP80,"10998 West Coast Road, Lake Pearson 7580.",HQP80,Wed 1 Oct 5:05 p.m.,111,NA,NA,-43.0571,171.76
HQP80,"10508-10998 State Highway 73, Lake Pearson 7580.",HQP80,Wed 1 Oct 5:05 p.m.,120,NA,NA,-43.0614,171.762
HQP80,"10508-10998 State Highway 73, Lake Pearson 7580.",HQP80,Wed 1 Oct 5:05 p.m.,129,NA,NA,-43.0657,171.764
HQP80,"10508-10998 State Highway 73, Lake Pearson 7580.",HQP80,Wed 1 Oct 5:05 p.m.,115,NA,NA,-43.07,171.767
HQP80,"10630-10944 West Coast Road, Lake Pearson 7580.",HQP80,Wed 1 Oct 5:06 p.m.,113,NA,NA,-43.0825,171.774
HQP80,"10630-10944 West Coast Road, Lake Pearson 7580.",HQP80,Wed 1 Oct 5:07 p.m.,116,NA,NA,-43.0866,171.777
HQP80,"10508-10998 State Highway 73, Lake Pearson 7580.",HQP80,Wed 1 Oct 5:07 p.m.,118,NA,NA,-43.0913,171.778
HQP80,"10508-10998 State Highway 73, Lake Pearson 7580.",HQP80,Wed 1 Oct 5:07 p.m.,118,NA,NA,-43.096,171.778
HQP80,"10508-10554 West Coast Road, Lake Pearson 7580.",HQP80,Wed 1 Oct 5:09 p.m.,114,NA,NA,-43.1158,171.772
HQP80,"10508-10554 West Coast Road, Lake Pearson 7580.",HQP80,Wed 1 Oct 5:09 p.m.,119,NA,NA,-43.1201,171.773
HQP80,"10508-10554 West Coast Road, Lake Pearson 7580.",HQP80,Wed 1 Oct 5:09 p.m.,111,NA,NA,-43.1248,171.773
HQP80,"10508-10554 West Coast Road, Lake Pearson 7580.",HQP80,Wed 1 Oct 5:09 p.m.,111,NA,NA,-43.1286,171.77
HQP80,"West Coast Road, Lake Pearson 7580.",HQP80,Wed 1 Oct 5:13 p.m.,114,NA,NA,-43.1589,171.727
HQP80,"Near 9613 West Coast Road, Lake Pearson 7580.",HQP80,Wed 1 Oct 5:13 p.m.,113,NA,NA,-43.163,171.724
HQP80,"Near 9613 West Coast Road, Lake Pearson 7580.",HQP80,Wed 1 Oct 5:14 p.m.,113,NA,NA,-43.176,171.725
HQP80,"Near 9613 West Coast Road, Lake Pearson 7580.",HQP80,Wed 1 Oct 5:15 p.m.,120,NA,NA,-43.1844,171.73
HQP80,"Near West Coast Road, Lake Pearson 7580.",HQP80,Wed 1 Oct 5:15 p.m.,116,NA,NA,-43.1883,171.733
HQP80,"West Coast Road, Castle Hill 7580.",HQP80,Wed 1 Oct 5:19 p.m.,115,NA,NA,-43.2261,171.726
HQP80,"8557-8639 State Highway 73, Castle Hill 7580.",HQP80,Wed 1 Oct 5:21 p.m.,111,NA,NA,-43.2472,171.723
HQP80,"8557-8639 State Highway 73, Castle Hill 7580.",HQP80,Wed 1 Oct 5:21 p.m.,114,NA,NA,-43.2502,171.718
HQP80,"8557-8639 State Highway 73, Castle Hill 7580.",HQP80,Wed 1 Oct 5:21 p.m.,112,NA,NA,-43.2539,171.714
HQP80,"Near 8131 West Coast Road, Castle Hill 7580.",HQP80,Wed 1 Oct 5:23 p.m.,118,NA,NA,-43.2704,171.707
HQP80,"Near 8131 West Coast Road, Castle Hill 7580.",HQP80,Wed 1 Oct 5:23 p.m.,119,NA,NA,-43.2749,171.707
HQP80,"7811-8131 West Coast Road, Castle Hill 7580.",HQP80,Wed 1 Oct 5:23 p.m.,111,NA,NA,-43.2794,171.708
HQP80,"Near West Coast Road, Springfield 7580.",HQP80,Wed 1 Oct 5:25 p.m.,120,NA,NA,-43.2946,171.727
HQP80,"Near West Coast Road, Castle Hill 7580.",HQP80,Wed 1 Oct 5:25 p.m.,115,NA,NA,-43.2963,171.733
HQP80,"7523-7528 West Coast Road, Springfield 7580.",HQP80,Wed 1 Oct 5:30 p.m.,127,NA,NA,-43.3212,171.782
HQP80,"7523-7528 West Coast Road, Springfield 7580.",HQP80,Wed 1 Oct 5:31 p.m.,123,NA,NA,-43.3275,171.79
HQP80,"7523-7528 West Coast Road, Springfield 7580.",HQP80,Wed 1 Oct 5:32 p.m.,124,NA,NA,-43.3313,171.807
HQP80,"7523 West Coast Road, Springfield 7580.",HQP80,Wed 1 Oct 5:32 p.m.,131,NA,NA,-43.3314,171.813
HQP80,"Near West Coast Road, Springfield 7580.",HQP80,Wed 1 Oct 5:32 p.m.,123,NA,NA,-43.3307,171.82
HQP80,"Near West Coast Road, Springfield 7580.",HQP80,Wed 1 Oct 5:32 p.m.,114,NA,NA,-43.3301,171.826
HQP80,"Near West Coast Road, Springfield 7580.",HQP80,Wed 1 Oct 5:33 p.m.,120,NA,NA,-43.3294,171.832
HQP80,"West Coast Road, Springfield 7580.",HQP80,Wed 1 Oct 5:33 p.m.,115,NA,NA,-43.3287,171.839
HQP80,"Near West Coast Road, Springfield 7580.",HQP80,Wed 1 Oct 5:33 p.m.,115,NA,NA,-43.3281,171.845
HQP80,"Near West Coast Road, Springfield 7580.",HQP80,Wed 1 Oct 5:33 p.m.,116,NA,NA,-43.3274,171.851
HQP80,"5583-5629 State Highway 73, Springfield 7681.",HQP80,Wed 1 Oct 5:38 p.m.,117,NA,NA,-43.3408,171.936
HQP80,"Near West Coast Road, Springfield 7681.",HQP80,Wed 1 Oct 5:39 p.m.,116,NA,NA,-43.3464,171.945
HQP80,"Near West Coast Road, Springfield 7681.",HQP80,Wed 1 Oct 5:39 p.m.,112,NA,NA,-43.3494,171.951
HQP80,"West Coast Road, Sheffield 7681.",HQP80,Wed 1 Oct 5:40 p.m.,111,NA,NA,-43.361,171.971
HQP80,"Near 4901 West Coast Road, Sheffield 7580.",HQP80,Wed 1 Oct 5:42 p.m.,115,NA,NA,-43.3782,172.001
HQP80,"Near 4901 West Coast Road, Sheffield 7580.",HQP80,Wed 1 Oct 5:42 p.m.,113,NA,NA,-43.381,172.006
HQP80,"Near 3784 Old West Coast Road, Sheffield 7580.",HQP80,Wed 1 Oct 5:45 p.m.,112,NA,NA,-43.4022,172.052
HQP80,"3716 Old West Coast Road, Sheffield 7571.",HQP80,Wed 1 Oct 5:46 p.m.,116,NA,NA,-43.4029,172.058
HQP80,"Near 3716 Old West Coast Road, Sheffield 7571.",HQP80,Wed 1 Oct 5:46 p.m.,116,NA,NA,-43.4037,172.064
HQP80,"Near 3716 Old West Coast Road, Sheffield 7571.",HQP80,Wed 1 Oct 5:46 p.m.,112,NA,NA,-43.4045,172.071
HQP80,"3486 Old West Coast Road, Sheffield 7571.",HQP80,Wed 1 Oct 5:47 p.m.,116,NA,NA,-43.4081,172.082
HQP80,"Near 3437 Old West Coast Road, Darfield 7571.",HQP80,Wed 1 Oct 5:47 p.m.,114,NA,NA,-43.4102,172.088
HQP80,"3369-3437 Old West Coast Road, Darfield 7571.",HQP80,Wed 1 Oct 5:47 p.m.,113,NA,NA,-43.4122,172.094
HQP80,"Near 3369 Old West Coast Road, Darfield 7571.",HQP80,Wed 1 Oct 5:47 p.m.,113,NA,NA,-43.4142,172.099
HQP80,"Near 3369 Old West Coast Road, Darfield 7571.",HQP80,Wed 1 Oct 5:48 p.m.,111,NA,NA,-43.4163,172.105
HQP80,"3369 Old West Coast Road, Darfield 7571.",HQP80,Wed 1 Oct 5:48 p.m.,113,NA,NA,-43.4184,172.111
HQP80,"Old West Coast Road, Darfield, Selwyn",HQP80,Wed 1 Oct 5:49 p.m.,112,NA,NA,-43.4237,172.121
HQP80,"Near 3134 Old West Coast Road, Darfield 7571.",HQP80,Wed 1 Oct 5:49 p.m.,111,NA,NA,-43.4268,172.126
HQP80,"Near 3134 Old West Coast Road, Darfield 7571.",HQP80,Wed 1 Oct 5:49 p.m.,112,NA,NA,-43.4294,172.131
HQP80,"Near 3134 Old West Coast Road, Darfield 7571.",HQP80,Wed 1 Oct 5:49 p.m.,111,NA,NA,-43.4316,172.137
HQP80,"Near 2819 Old West Coast Road, Darfield 7571.",HQP80,Wed 1 Oct 5:50 p.m.,111,NA,NA,-43.4384,172.154
HQP80,"1970 Old West Coast Road, Kirwee 7671.",HQP80,Wed 1 Oct 5:55 p.m.,112,NA,NA,-43.4705,172.252
HQP80,"Near 1868 Old West Coast Road, Kirwee 7671.",HQP80,Wed 1 Oct 5:56 p.m.,112,NA,NA,-43.4755,172.269
HQP80,"1602-1682 Old West Coast Road, West Melton 7671.",HQP80,Wed 1 Oct 5:57 p.m.,111,NA,NA,-43.4791,172.288
HQP80,"Near Main South Road, Burnham 7675.",HQP80,Fri 3 Oct 9:52 a.m.,120,NA,NA,-43.6334,172.267
HQP80,"3458-3648 State Highway 1, Dunsandel 7682.",HQP80,Wed 15 Oct 9:42 a.m.,115,NA,NA,-43.6688,172.171
HQP80,"Near 1105 Rangitata Highway, Ealing 7773.",HQP80,Thu 16 Oct 3:44 p.m.,114,NA,NA,-44.0414,171.433
HQP80,"Near Rangitata Highway, Ealing 7773.",HQP80,Thu 16 Oct 3:46 p.m.,111,NA,NA,-44.0291,171.481
HQP80,"Near Main South Road, Dunsandel 7682.",HQP80,Fri 17 Oct 8:06 a.m.,114,NA,NA,-43.6809,172.139
HQP80,"Near Main South Road, Bankside 7783.",HQP80,Fri 17 Oct 8:10 a.m.,120,NA,NA,-43.7143,172.072
HQP80,"Near Orari-Rangitata Highway, Rangitata Island 7986.",HQP80,Fri 17 Oct 9:05 a.m.,114,NA,NA,-44.0542,171.4
HQP80,"Near 211 Orari-Rangitata Highway, Orton 7992.",HQP80,Fri 17 Oct 9:10 a.m.,124,NA,NA,-44.1085,171.314
HQP80,"737-775 Timaru-Temuka Highway, Kerrytown 7973.",HQP80,Fri 17 Oct 9:28 a.m.,122,NA,NA,-44.2855,171.258
HQP80,"Near 11 Temuka-Orari Highway, Temuka 7920.",HQP80,Fri 17 Oct 10:45 a.m.,115,NA,NA,-44.2228,171.273
HQP80,"Near 1225 Hinds Highway, Hinds 7773.",HQP80,Fri 17 Oct 11:11 a.m.,115,NA,NA,-43.985,171.601
HQP80,"1497-1535 State Highway 1, Rolleston 7675.",HQP80,Fri 17 Oct 12:47 p.m.,111,NA,NA,-43.5829,172.405
HQP80,"Near 1347 Rakaia Highway, Chertsey 7772.",HQP80,Tue 28 Oct 2:58 p.m.,112,NA,NA,-43.8181,171.895
HQP80,"1985-2085 Rakaia Highway, Rakaia 7772.",HQP80,Tue 28 Oct 3:02 p.m.,120,NA,NA,-43.7851,171.973
HQP80,"1971-2085 State Highway 1, Rakaia 7772.",HQP80,Tue 28 Oct 3:03 p.m.,113,NA,NA,-43.7828,171.978
HQP80,"Main South Road, Bankside 7783.",HQP80,Tue 28 Oct 3:08 p.m.,111,NA,NA,-43.7299,172.053
HQP80,"Near 2239 Main South Road, Burnham 7600.",HQP80,Tue 28 Oct 3:25 p.m.,117,NA,NA,-43.6096,172.33
HQP80,"Near 2239 Main South Road, Burnham 7600.",HQP80,Tue 28 Oct 3:26 p.m.,124,NA,NA,-43.6074,172.335
HQP82,"1261-1437 State Highway 1, Chertsey 7772.",HQP82,Thu 2 Oct 12:06 p.m.,116,NA,NA,-43.8191,171.893
HQP82,"Main South Road, Burnham 7675.",HQP82,Tue 14 Oct 10:30 a.m.,114,NA,NA,-43.634,172.265
HQP82,"Near Main South Road, Burnham 7675.",HQP82,Tue 14 Oct 10:30 a.m.,115,NA,NA,-43.6318,172.271
HQP83,"Near 1031 State Highway 2, Paengaroa 3186.",HQP83,Mon 6 Oct 12:19 p.m.,114,NA,NA,-37.8058,176.433
HQP83,"1114 State Highway 2, Paengaroa 3186.",HQP83,Mon 6 Oct 12:19 p.m.,114,NA,NA,-37.8076,176.438
HQP83,"1-215 State Highway 34, Otakiri 3192.",HQP83,Mon 6 Oct 2:45 p.m.,117,NA,NA,-37.9947,176.764
HQP83,"346-360 Awaiti South Road, Otakiri 3193.",HQP83,Mon 6 Oct 2:46 p.m.,136,NA,NA,-37.9812,176.767
HQP83,"Near 206 Awaiti South Road, Otakiri 3193.",HQP83,Mon 6 Oct 2:47 p.m.,135,NA,NA,-37.9685,176.776
HQP83,"174-356 State Highway 2, Matata 3194.",HQP83,Mon 6 Oct 2:55 p.m.,119,NA,NA,-37.8773,176.724
HQP83,"174-356 State Highway 2, Matata 3194.",HQP83,Mon 6 Oct 2:56 p.m.,123,NA,NA,-37.8755,176.719
HQP83,"174-356 State Highway 2, Matata 3194.",HQP83,Mon 6 Oct 2:56 p.m.,118,NA,NA,-37.8718,176.709
HQP83,"174-356 State Highway 2, Matata 3194.",HQP83,Mon 6 Oct 2:56 p.m.,114,NA,NA,-37.87,176.703
HQP83,"2615 State Highway 2, Pukehina 3186.",HQP83,Mon 6 Oct 3:03 p.m.,142,NA,NA,-37.8274,176.587
HQP83,"2203 State Highway 2, Pukehina 3186.",HQP83,Mon 6 Oct 3:05 p.m.,111,NA,NA,-37.8217,176.551
HQP83,"1551 Te Puke East Road, Pongakawa 3186.",HQP83,Mon 6 Oct 3:09 p.m.,113,NA,NA,-37.8239,176.478
HQP83,"Near 1006 Tirau Road, Karapiro 3494.",HQP83,Thu 9 Oct 8:32 a.m.,114,NA,NA,-37.9434,175.584
HQP83,"2096-2322 State Highway, Lower Kaimai 3171.",HQP83,Thu 9 Oct 7:47 p.m.,114,NA,NA,-37.8225,176.001
HQP83,"6557-6603 Waiapu Road, Ruatoria 4081.",HQP83,Thu 16 Oct 10:48 a.m.,135,NA,NA,-37.9379,178.255
HQP83,"6623 Waiapu Road, Ruatoria 4081.",HQP83,Thu 16 Oct 10:48 a.m.,112,NA,NA,-37.9333,178.257
